
[2024-02-17 22:05:26.021] 
[2024-02-17 22:05:26.021] Hello nemo2.space tracker p 2
[2024-02-17 22:05:26.021] 
[2024-02-17 22:05:26.021] 2000.01.01 00:00:00
[2024-02-17 22:05:26.352] R!ƒ!••±√˘ß/@IèƒÆÆìÄÆÆäQL]!ˇ$PQTMVER,MODULE_LC76GPANR12A01S,2023/02/13,10:41:57*61
[2024-02-17 22:05:26.542] $PAIR001,002,1*38
[2024-02-17 22:05:26.565] $PAIR001,021,0*38
[2024-02-17 22:05:26.581] $PAIR021,AG3352Q_V2.3.0.AG3352_20230213,S,N,2b31f59,2209141904,,,,,d32ef91c,2209141902,571d3e7,2209141904,,,-15.48,-15.48,-14.02,-15.48,0,1,##,0,0*34
[2024-02-17 22:05:26.741] $PAIR011,001*27
[2024-02-17 22:05:26.755] $PAIR001,752,0*3B
[2024-02-17 22:05:26.779] $PAIR010,1,-1*16
[2024-02-17 22:05:26.801] $PAIR010,2,-1*15
[2024-02-17 22:05:26.815] $PAIR001,002,0*39
[2024-02-17 22:05:26.836] $PAIR001,021,0*38
[2024-02-17 22:05:26.859] $PAIR021,AG3352Q_V2.3.0.AG3352_20230213,S,N,2b31f59,2209141904,,,,,d32ef91c,2209141902,571d3e7,2209141904,,,-15.48,-15.48,-14.02,-15.48,0,1,##,0,0*34
[2024-02-17 22:05:27.016] $GNGLL,,,,,235942.013,V,N*6D
[2024-02-17 22:05:27.048] $GNGSA,A,1,,,,,,,,,,,,,,,,1*1D
[2024-02-17 22:05:27.081] $GNGSA,A,1,,,,,,,,,,,,,,,,3*1F
[2024-02-17 22:05:27.112] $GPGSV,1,1,00,1*64
[2024-02-17 22:05:27.133] $GAGSV,1,1,00,7*73
[2024-02-17 22:05:27.154] $GNRMC,235942.013,V,,,,,,,050180,,,N,V*2C
[2024-02-17 22:05:27.772] $GNGLL,,,,,235943.012,V,N*6D
[2024-02-17 22:05:27.800] $GNGSA,A,1,,,,,,,,,,,,,,,,1*1D
[2024-02-17 22:05:27.836] $GNGSA,A,1,,,,,,,,,,,,,,,,3*1F
[2024-02-17 22:05:27.861] $GPGSV,1,1,00,1*64
[2024-02-17 22:05:27.888] $GAGSV,1,1,00,7*73
[2024-02-17 22:05:27.907] $GNRMC,235943.012,V,,,,,,,050180,,,N,V*2C
[2024-02-17 22:05:28.771] $GNGLL,,,,,235944.012,V,N*6A
[2024-02-17 22:05:28.791] $GNGSA,A,1,,,,,,,,,,,,,,,,1*1D
[2024-02-17 22:05:28.831] $GNGSA,A,1,,,,,,,,,,,,,,,,3*1F
[2024-02-17 22:05:28.864] $GPGSV,1,1,01,17,,,35,1*65
[2024-02-17 22:05:28.892] $GAGSV,1,1,00,7*73
[2024-02-17 22:05:28.914] $GNRMC,235944.012,V,,,,,,,050180,,,N,V*2B
[2024-02-17 22:05:29.755] $GNGLL,,,,,235945.012,V,N*6B
[2024-02-17 22:05:29.801] $GNGSA,A,1,,,,,,,,,,,,,,,,1*1D
[2024-02-17 22:05:29.831] $GNGSA,A,1,,,,,,,,,,,,,,,,3*1F
[2024-02-17 22:05:29.854] $GPGSV,1,1,01,17,,,27,1*66
[2024-02-17 22:05:29.887] $GAGSV,1,1,00,7*73
[2024-02-17 22:05:29.914] $GNRMC,235945.012,V,,,,,,,050180,,,N,V*2A
[2024-02-17 22:05:30.768] $GNGLL,,,,,235946.011,V,N*6B
[2024-02-17 22:05:30.801] $GNGSA,A,1,,,,,,,,,,,,,,,,1*1D
[2024-02-17 22:05:30.834] $GNGSA,A,1,,,,,,,,,,,,,,,,3*1F
[2024-02-17 22:05:30.866] $GPGSV,1,1,01,17,,,30,1*60
[2024-02-17 22:05:30.894] $GAGSV,1,1,00,7*73
[2024-02-17 22:05:30.914] $GNRMC,235946.011,V,,,,,,,050180,,,N,V*2A
[2024-02-17 22:05:31.765] $GNGLL,,,,,235947.012,V,N*69
[2024-02-17 22:05:31.801] $GNGSA,A,1,,,,,,,,,,,,,,,,1*1D
[2024-02-17 22:05:31.830] $GNGSA,A,1,,,,,,,,,,,,,,,,3*1F
[2024-02-17 22:05:31.860] $GPGSV,1,1,01,17,,,25,1*64
[2024-02-17 22:05:31.895] $GAGSV,1,1,00,7*73
[2024-02-17 22:05:31.908] $GNRMC,235947.012,V,,,,,,,050180,,,N,V*28
[2024-02-17 22:05:32.762] $GNGLL,,,,,235948.012,V,N*66
[2024-02-17 22:05:32.794] $GNGSA,A,1,,,,,,,,,,,,,,,,1*1D
[2024-02-17 22:05:32.827] $GNGSA,A,1,,,,,,,,,,,,,,,,3*1F
[2024-02-17 22:05:32.857] $GPGSV,1,1,01,17,,,35,1*65
[2024-02-17 22:05:32.890] $GAGSV,1,1,00,7*73
[2024-02-17 22:05:32.916] $GNRMC,235948.012,V,,,,,,,050180,,,N,V*27
[2024-02-17 22:05:33.758] $GNGLL,,,,,235949.012,V,N*67
[2024-02-17 22:05:33.806] $GNGSA,A,1,,,,,,,,,,,,,,,,1*1D
[2024-02-17 22:05:33.833] $GNGSA,A,1,,,,,,,,,,,,,,,,3*1F
[2024-02-17 22:05:33.859] $GPGSV,1,1,01,17,,,25,1*64
[2024-02-17 22:05:33.894] $GAGSV,1,1,01,08,,,39,7*70
[2024-02-17 22:05:33.923] $GNRMC,235949.012,V,,,,,,,050180,,,N,V*26
[2024-02-17 22:05:34.755] $GNGLL,,,,,235950.012,V,N*6F
[2024-02-17 22:05:34.807] $GNGSA,A,1,,,,,,,,,,,,,,,,1*1D
[2024-02-17 22:05:34.821] $GNGSA,A,1,,,,,,,,,,,,,,,,3*1F
[2024-02-17 22:05:34.865] $GPGSV,1,1,01,17,,,44,1*63
[2024-02-17 22:05:34.889] $GAGSV,1,1,01,08,,,31,7*78
[2024-02-17 22:05:34.922] $GNRMC,235950.012,V,,,,,,,050180,,,N,V*2E
[2024-02-17 22:05:35.767] $GNGLL,,,,,235951.012,V,N*6E
[2024-02-17 22:05:35.805] $GNGSA,A,1,,,,,,,,,,,,,,,,1*1D
[2024-02-17 22:05:35.833] $GNGSA,A,1,,,,,,,,,,,,,,,,3*1F
[2024-02-17 22:05:35.864] $GPGSV,1,1,01,17,,,44,1*63
[2024-02-17 22:05:35.895] $GAGSV,1,1,01,08,,,25,7*7D
[2024-02-17 22:05:35.925] $GNRMC,235951.012,V,,,,,,,050180,,,N,V*2F
[2024-02-17 22:05:36.765] $GNGLL,,,,,235952.012,V,N*6D
[2024-02-17 22:05:36.802] $GNGSA,A,1,,,,,,,,,,,,,,,,1*1D
[2024-02-17 22:05:36.834] $GNGSA,A,1,,,,,,,,,,,,,,,,3*1F
[2024-02-17 22:05:36.865] $GPGSV,1,1,01,17,,,44,1*63
[2024-02-17 22:05:36.895] $GAGSV,1,1,01,08,,,27,7*7F
[2024-02-17 22:05:36.925] $GNRMC,235952.012,V,,,,,,,050180,,,N,V*2C
[2024-02-17 22:05:37.766] $GNGLL,,,,,235953.012,V,N*6C
[2024-02-17 22:05:37.808] $GNGSA,A,1,,,,,,,,,,,,,,,,1*1D
[2024-02-17 22:05:37.832] $GNGSA,A,1,,,,,,,,,,,,,,,,3*1F
[2024-02-17 22:05:37.865] $GPGSV,1,1,01,17,,,44,1*63
[2024-02-17 22:05:37.895] $GAGSV,1,1,01,08,,,26,7*7E
[2024-02-17 22:05:37.926] $GNRMC,235953.012,V,,,,,,,050180,,,N,V*2D
[2024-02-17 22:05:38.766] $GNGLL,,,,,235954.012,V,N*6B
[2024-02-17 22:05:38.806] $GNGSA,A,1,,,,,,,,,,,,,,,,1*1D
[2024-02-17 22:05:38.833] $GNGSA,A,1,,,,,,,,,,,,,,,,3*1F
[2024-02-17 22:05:38.866] $GPGSV,1,1,01,17,,,44,1*63
[2024-02-17 22:05:38.896] $GAGSV,1,1,01,08,,,25,7*7D
[2024-02-17 22:05:38.925] $GNRMC,235954.012,V,,,,,,,050180,,,N,V*2A
[2024-02-17 22:05:39.767] $GNGLL,,,,,210532.205,V,N*64
[2024-02-17 22:05:39.808] $GNGSA,A,1,,,,,,,,,,,,,,,,1*1D
[2024-02-17 22:05:39.831] $GNGSA,A,1,,,,,,,,,,,,,,,,3*1F
[2024-02-17 22:05:39.863] $GPGSV,1,1,01,17,,,44,1*63
[2024-02-17 22:05:39.895] $GAGSV,1,1,01,08,,,25,7*7D
[2024-02-17 22:05:39.925] $GNRMC,210532.205,V,,,,,,,120180,,,N,V*23
[2024-02-17 22:05:40.764] $GNGLL,,,,,210533.205,V,N*65
[2024-02-17 22:05:40.810] $GNGSA,A,1,,,,,,,,,,,,,,,,1*1D
[2024-02-17 22:05:40.832] $GNGSA,A,1,,,,,,,,,,,,,,,,3*1F
[2024-02-17 22:05:40.865] $GPGSV,1,1,01,17,,,44,1*63
[2024-02-17 22:05:40.896] $GAGSV,1,1,01,08,,,25,7*7D
[2024-02-17 22:05:40.926] $GNRMC,210533.205,V,,,,,,,120180,,,N,V*22
[2024-02-17 22:05:41.763] $GNGLL,,,,,210534.205,V,N*62
[2024-02-17 22:05:41.810] $GNGSA,A,1,,,,,,,,,,,,,,,,1*1D
[2024-02-17 22:05:41.832] $GNGSA,A,1,,,,,,,,,,,,,,,,3*1F
[2024-02-17 22:05:41.868] $GPGSV,1,1,01,17,,,44,1*63
[2024-02-17 22:05:41.892] $GAGSV,1,1,01,08,,,25,7*7D
[2024-02-17 22:05:41.922] $GNRMC,210534.205,V,,,,,,,120180,,,N,V*25
[2024-02-17 22:05:42.759] $GNGLL,,,,,210535.205,V,N*63
[2024-02-17 22:05:42.804] $GNGSA,A,1,,,,,,,,,,,,,,,,1*1D
[2024-02-17 22:05:42.827] $GNGSA,A,1,,,,,,,,,,,,,,,,3*1F
[2024-02-17 22:05:42.867] $GPGSV,1,1,01,17,,,44,1*63
[2024-02-17 22:05:42.895] $GAGSV,1,1,01,08,,,25,7*7D
[2024-02-17 22:05:42.927] $GNRMC,210535.205,V,,,,,,,120180,,,N,V*24
[2024-02-17 22:05:43.662] $GNGLL,,,,,210536.105,V,N*63
[2024-02-17 22:05:43.705] $GNGSA,A,1,,,,,,,,,,,,,,,,1*1D
[2024-02-17 22:05:43.734] $GNGSA,A,1,,,,,,,,,,,,,,,,3*1F
[2024-02-17 22:05:43.767] $GPGSV,1,1,01,17,,,44,1*63
[2024-02-17 22:05:43.797] $GAGSV,1,1,02,08,,,25,31,,,40,7*78
[2024-02-17 22:05:43.832] $GNRMC,210536.105,V,,,,,,,120180,,,N,V*24
[2024-02-17 22:05:44.659] $GNGLL,,,,,210537.105,V,N*62
[2024-02-17 22:05:44.691] $GNGSA,A,1,,,,,,,,,,,,,,,,1*1D
[2024-02-17 22:05:44.724] $GNGSA,A,1,,,,,,,,,,,,,,,,3*1F
[2024-02-17 22:05:44.766] $GPGSV,1,1,01,17,,,44,1*63
[2024-02-17 22:05:44.794] $GAGSV,1,1,02,08,,,25,31,,,41,7*79
[2024-02-17 22:05:44.834] $GNRMC,210537.105,V,,,,,,,120180,,,N,V*25
[2024-02-17 22:05:45.672] $GNGLL,,,,,210538.105,V,N*6D
[2024-02-17 22:05:45.710] $GNGSA,A,1,,,,,,,,,,,,,,,,1*1D
[2024-02-17 22:05:45.736] $GNGSA,A,1,,,,,,,,,,,,,,,,3*1F
[2024-02-17 22:05:45.768] $GPGSV,1,1,03,01,,,43,17,,,44,14,,,49,1*6F
[2024-02-17 22:05:45.813] $GAGSV,1,1,02,08,,,26,31,,,41,7*7A
[2024-02-17 22:05:45.849] $GNRMC,210538.105,V,,,,,,,120180,,,N,V*2A
[2024-02-17 22:05:46.652] $PAIR010,0,0,2301,594356*33
[2024-02-17 22:05:46.686] $PAIR010,0,2,2301,594356*31
[2024-02-17 22:05:46.700] $GNGLL,,,,,210539.105,V,N*6C
[2024-02-17 22:05:46.742] $GNGSA,A,1,,,,,,,,,,,,,,,,1*1D
[2024-02-17 22:05:46.777] $GNGSA,A,1,,,,,,,,,,,,,,,,3*1F
[2024-02-17 22:05:46.811] $GPGSV,1,1,03,01,,,43,17,,,44,14,,,50,1*67
[2024-02-17 22:05:46.855] $GAGSV,1,1,02,08,,,26,31,,,41,7*7A
[2024-02-17 22:05:46.893] $GNRMC,210539.105,V,,,,,,,170224,,,N,V*23
[2024-02-17 22:05:47.681] $GNGLL,,,,,210540.105,V,N*62
[2024-02-17 22:05:47.715] $GNGSA,A,1,,,,,,,,,,,,,,,,1*1D
[2024-02-17 22:05:47.731] $GNGSA,A,1,,,,,,,,,,,,,,,,3*1F
[2024-02-17 22:05:47.774] $GPGSV,1,1,04,01,,,43,17,,,44,14,,,50,22,,,36,1*65
[2024-02-17 22:05:47.828] $GAGSV,1,1,02,08,,,26,31,,,41,7*7A
[2024-02-17 22:05:47.868] $GNRMC,210540.105,V,,,,,,,170224,,,N,V*2D
[2024-02-17 22:05:48.681] $GNGLL,,,,,210541.105,V,N*63
[2024-02-17 22:05:48.714] $GNGSA,A,1,,,,,,,,,,,,,,,,1*1D
[2024-02-17 22:05:48.743] $GNGSA,A,1,,,,,,,,,,,,,,,,3*1F
[2024-02-17 22:05:48.777] $GPGSV,2,1,06,01,,,43,17,,,44,14,,,50,05,,,24,1*62
[2024-02-17 22:05:48.830] $GPGSV,2,2,06,02,,,24,22,,,37,1*62
[2024-02-17 22:05:48.868] $GAGSV,1,1,02,08,,,26,31,,,41,7*7A
[2024-02-17 22:05:48.904] $GNRMC,210541.105,V,,,,,,,170224,,,N,V*2C
[2024-02-17 22:05:49.681] $GNGLL,,,,,210542.105,V,N*60
[2024-02-17 22:05:49.714] $GNGSA,A,1,,,,,,,,,,,,,,,,1*1D
[2024-02-17 22:05:49.745] $GNGSA,A,1,,,,,,,,,,,,,,,,3*1F
[2024-02-17 22:05:49.777] $GPGSV,2,1,06,01,,,43,17,,,44,14,,,50,10,,,35,1*66
[2024-02-17 22:05:49.832] $GPGSV,2,2,06,07,,,23,22,,,37,1*60
[2024-02-17 22:05:49.869] $GAGSV,1,1,02,08,,,26,31,,,41,7*7A
[2024-02-17 22:05:49.905] $GNRMC,210542.105,V,,,,,,,170224,,,N,V*2F
[2024-02-17 22:05:50.666] $GNGLL,,,,,210543.105,V,N*61
[2024-02-17 22:05:50.702] $GNGSA,A,1,,,,,,,,,,,,,,,,1*1D
[2024-02-17 22:05:50.739] $GNGSA,A,1,,,,,,,,,,,,,,,,3*1F
[2024-02-17 22:05:50.774] $GPGSV,2,1,05,10,,,36,17,,,44,14,,,50,01,,,43,1*66
[2024-02-17 22:05:50.826] $GPGSV,2,2,05,22,,,37,1*65
[2024-02-17 22:05:50.854] $GAGSV,1,1,02,08,,,26,31,,,41,7*7A
[2024-02-17 22:05:50.896] $GNRMC,210543.105,V,,,,,,,170224,,,N,V*2E
[2024-02-17 22:05:51.678] $GNGLL,,,,,210544.105,V,N*66
[2024-02-17 22:05:51.710] $GNGSA,A,1,,,,,,,,,,,,,,,,1*1D
[2024-02-17 22:05:51.743] $GNGSA,A,1,,,,,,,,,,,,,,,,3*1F
[2024-02-17 22:05:51.775] $GPGSV,2,1,07,10,,,37,17,,,44,14,,,50,01,,,43,1*65
[2024-02-17 22:05:51.826] $GPGSV,2,2,07,11,,,25,16,,,24,22,,,37,1*61
[2024-02-17 22:05:51.868] $GAGSV,1,1,02,08,,,27,31,,,41,7*7B
[2024-02-17 22:05:51.909] $GNRMC,210544.105,V,,,,,,,170224,,,N,V*29
[2024-02-17 22:05:52.675] $GNGLL,,,,,210545.105,V,N*67
[2024-02-17 22:05:52.707] $GNGSA,A,1,,,,,,,,,,,,,,,,1*1D
[2024-02-17 22:05:52.740] $GNGSA,A,1,,,,,,,,,,,,,,,,3*1F
[2024-02-17 22:05:52.776] $GPGSV,2,1,06,01,,,43,17,,,44,14,,,50,10,,,37,1*64
[2024-02-17 22:05:52.829] $GPGSV,2,2,06,28,,,25,22,,,37,1*6B
[2024-02-17 22:05:52.866] $GAGSV,1,1,02,08,,,27,31,,,41,7*7B
[2024-02-17 22:05:52.905] $GNRMC,210545.105,V,,,,,,,170224,,,N,V*28
[2024-02-17 22:05:53.672] $GNGLL,,,,,210546.105,V,N*64
[2024-02-17 22:05:53.713] $GNGSA,A,1,,,,,,,,,,,,,,,,1*1D
[2024-02-17 22:05:53.743] $GNGSA,A,1,,,,,,,,,,,,,,,,3*1F
[2024-02-17 22:05:53.772] $GPGSV,2,1,06,01,,,43,17,,,44,14,,,50,10,,,37,1*64
[2024-02-17 22:05:53.829] $GPGSV,2,2,06,22,,,37,32,,,35,1*61
[2024-02-17 22:05:53.869] $GAGSV,1,1,02,08,,,27,31,,,41,7*7B
[2024-02-17 22:05:53.906] $GNRMC,210546.105,V,,,,,,,170224,,,N,V*2B
[2024-02-17 22:05:54.682] $GNGLL,,,,,210547.105,V,N*65
[2024-02-17 22:05:54.719] $GNGSA,A,1,,,,,,,,,,,,,,,,1*1D
[2024-02-17 22:05:54.745] $GNGSA,A,1,,,,,,,,,,,,,,,,3*1F
[2024-02-17 22:05:54.778] $GPGSV,2,1,07,10,,,37,17,,,44,14,,,50,01,,,43,1*65
[2024-02-17 22:05:54.832] $GPGSV,2,2,07,04,,,24,22,,,37,32,,,36,1*61
[2024-02-17 22:05:54.876] $GAGSV,1,1,02,08,,,27,31,,,41,7*7B
[2024-02-17 22:05:54.915] $GNRMC,210547.105,V,,,,,,,170224,,,N,V*2A
[2024-02-17 22:05:55.649] $GNGLL,,,,,210548.085,V,N*63
[2024-02-17 22:05:55.694] $GNGSA,A,1,,,,,,,,,,,,,,,,1*1D
[2024-02-17 22:05:55.726] $GNGSA,A,1,,,,,,,,,,,,,,,,3*1F
[2024-02-17 22:05:55.754] $GPGSV,2,1,06,01,,,43,17,,,44,14,,,50,10,,,37,1*64
[2024-02-17 22:05:55.811] $GPGSV,2,2,06,22,,,37,32,,,36,1*62
[2024-02-17 22:05:55.848] $GAGSV,1,1,02,08,,,27,31,,,41,7*7B
[2024-02-17 22:05:55.886] $GNRMC,210548.085,V,,,,,,,170224,,,N,V*2C
[2024-02-17 22:05:55.928] $GNGLL,,,,,210548.305,V,N*68
[2024-02-17 22:05:55.960] $GNGSA,A,1,,,,,,,,,,,,,,,,1*1D
[2024-02-17 22:05:55.996] $GNGSA,A,1,,,,,,,,,,,,,,,,3*1F
[2024-02-17 22:05:56.028] $GPGSV,2,1,06,01,,,43,17,,,44,14,,,50,10,,,37,1*64
[2024-02-17 22:05:56.082] $GPGSV,2,2,06,22,,,37,32,,,36,1*62
[2024-02-17 22:05:56.119] $GAGSV,1,1,02,08,,,27,31,,,41,7*7B
[2024-02-17 22:05:56.154] $GNRMC,210548.305,V,,,,,,,170224,,,N,V*27
[2024-02-17 22:05:56.881] $GNGLL,,,,,210549.305,V,N*69
[2024-02-17 22:05:56.911] $GNGSA,A,1,,,,,,,,,,,,,,,,1*1D
[2024-02-17 22:05:56.944] $GNGSA,A,1,,,,,,,,,,,,,,,,3*1F
[2024-02-17 22:05:56.976] $GPGSV,2,1,07,10,,,37,17,,,44,14,,,50,01,,,43,1*65
[2024-02-17 22:05:57.031] $GPGSV,2,2,07,22,,,37,198,,,24,32,,,36,1*55
[2024-02-17 22:05:57.078] $GAGSV,1,1,02,08,,,27,31,,,41,7*7B
[2024-02-17 22:05:57.102] $GNRMC,210549.305,V,,,,,,,170224,,,N,V*26
[2024-02-17 22:05:57.876] $GNGLL,,,,,210550.305,V,N*61
[2024-02-17 22:05:57.910] $GNGSA,A,1,,,,,,,,,,,,,,,,1*1D
[2024-02-17 22:05:57.941] $GNGSA,A,1,,,,,,,,,,,,,,,,3*1F
[2024-02-17 22:05:57.972] $GPGSV,2,1,06,01,,,43,17,,,44,14,,,50,10,,,37,1*64
[2024-02-17 22:05:58.029] $GPGSV,2,2,06,22,,,37,32,,,35,1*61
[2024-02-17 22:05:58.068] $GAGSV,1,1,02,08,,,27,31,,,41,7*7B
[2024-02-17 22:05:58.104] $GNRMC,210550.305,V,,,,,,,170224,,,N,V*2E
[2024-02-17 22:05:58.881] $GNGLL,,,,,210551.305,V,N*60
[2024-02-17 22:05:58.902] $GNGSA,A,1,,,,,,,,,,,,,,,,1*1D
[2024-02-17 22:05:58.940] $GNGSA,A,1,,,,,,,,,,,,,,,,3*1F
[2024-02-17 22:05:58.967] $GPGSV,2,1,06,01,,,43,17,,,44,14,,,50,10,,,37,1*64
[2024-02-17 22:05:59.031] $GPGSV,2,2,06,22,,,37,32,,,35,1*61
[2024-02-17 22:05:59.069] $GAGSV,1,1,02,08,,,27,31,,,41,7*7B
[2024-02-17 22:05:59.103] $GNRMC,210551.305,V,,,,,,,170224,,,N,V*2F
[2024-02-17 22:05:59.878] $GNGLL,,,,,210552.305,V,N*63
[2024-02-17 22:05:59.912] $GNGSA,A,1,,,,,,,,,,,,,,,,1*1D
[2024-02-17 22:05:59.941] $GNGSA,A,1,,,,,,,,,,,,,,,,3*1F
[2024-02-17 22:05:59.976] $GPGSV,2,1,06,01,,,43,17,,,44,14,,,50,10,,,37,1*64
[2024-02-17 22:06:00.030] $GPGSV,2,2,06,22,,,38,32,,,35,1*6E
[2024-02-17 22:06:00.068] $GAGSV,1,1,03,12,,,38,08,,,27,31,,,41,7*72
[2024-02-17 22:06:00.112] $GNRMC,210552.305,V,,,,,,,170224,,,N,V*2C
[2024-02-17 22:06:00.881] $GNGLL,,,,,210553.305,V,N*62
[2024-02-17 22:06:00.913] $GNGSA,A,1,,,,,,,,,,,,,,,,1*1D
[2024-02-17 22:06:00.946] $GNGSA,A,1,,,,,,,,,,,,,,,,3*1F
[2024-02-17 22:06:00.977] $GPGSV,2,1,06,01,,,43,17,,,44,14,,,50,10,,,37,1*64
[2024-02-17 22:06:01.030] $GPGSV,2,2,06,22,,,38,32,,,34,1*6F
[2024-02-17 22:06:01.068] $GAGSV,1,1,03,12,,,40,08,,,27,31,,,41,7*7D
[2024-02-17 22:06:01.115] $GNRMC,210553.305,V,,,,,,,170224,,,N,V*2D
[2024-02-17 22:06:01.653] $GNGLL,,,,,210554.085,V,N*6E
[2024-02-17 22:06:01.686] $GNGSA,A,1,,,,,,,,,,,,,,,,1*1D
[2024-02-17 22:06:01.721] $GNGSA,A,1,,,,,,,,,,,,,,,,3*1F
[2024-02-17 22:06:01.749] $GPGSV,2,1,06,01,,,43,17,,,44,14,,,50,10,,,37,1*64
[2024-02-17 22:06:01.812] $GPGSV,2,2,06,22,,,38,32,,,34,1*6F
[2024-02-17 22:06:01.849] $GAGSV,1,1,03,12,,,41,08,,,27,31,,,41,7*7C
[2024-02-17 22:06:01.895] $GNRMC,210554.085,V,,,,,,,170224,,,N,V*21
[2024-02-17 22:06:01.939] $GNGLL,,,,,210554.286,V,N*6F
[2024-02-17 22:06:01.971] $GNGSA,A,1,,,,,,,,,,,,,,,,1*1D
[2024-02-17 22:06:02.003] $GNGSA,A,1,,,,,,,,,,,,,,,,3*1F
[2024-02-17 22:06:02.037] $GPGSV,2,1,06,01,,,43,17,,,44,14,,,50,10,,,37,1*64
[2024-02-17 22:06:02.090] $GPGSV,2,2,06,22,,,38,32,,,34,1*6F
[2024-02-17 22:06:02.129] $GAGSV,1,1,03,12,,,40,08,,,27,31,,,41,7*7D
[2024-02-17 22:06:02.174] $GNRMC,210554.286,V,,,,,,,170224,,,N,V*20
[2024-02-17 22:06:02.863] $GNGLL,,,,,210555.286,V,N*6E
[2024-02-17 22:06:02.894] $GNGSA,A,1,,,,,,,,,,,,,,,,1*1D
[2024-02-17 22:06:02.923] $GNGSA,A,1,,,,,,,,,,,,,,,,3*1F
[2024-02-17 22:06:02.959] $GPGSV,2,1,08,32,,,34,17,,,44,14,,,50,20,,,25,1*6A
[2024-02-17 22:06:03.012] $GPGSV,2,2,08,10,,,37,05,,,26,22,,,38,01,,,43,1*65
[2024-02-17 22:06:03.066] $GAGSV,1,1,03,12,,,40,08,,,27,31,,,41,7*7D
[2024-02-17 22:06:03.113] $GNRMC,210555.286,V,,,,,,,170224,,,N,V*21
[2024-02-17 22:06:03.860] $GNGLL,,,,,210556.286,V,N*6D
[2024-02-17 22:06:03.891] $GNGSA,A,1,,,,,,,,,,,,,,,,1*1D
[2024-02-17 22:06:03.923] $GNGSA,A,1,,,,,,,,,,,,,,,,3*1F
[2024-02-17 22:06:03.956] $GPGSV,2,1,07,18,,,26,17,,,44,14,,,50,01,,,43,1*6D
[2024-02-17 22:06:04.006] $GPGSV,2,2,07,10,,,37,22,,,38,32,,,33,1*6C
[2024-02-17 22:06:04.057] $GAGSV,1,1,03,12,,,41,08,,,27,31,,,41,7*7C
[2024-02-17 22:06:04.103] $GNRMC,210556.286,V,,,,,,,170224,,,N,V*22
[2024-02-17 22:06:04.859] $GNGLL,,,,,210557.286,V,N*6C
[2024-02-17 22:06:04.897] $GNGSA,A,1,,,,,,,,,,,,,,,,1*1D
[2024-02-17 22:06:04.927] $GNGSA,A,1,,,,,,,,,,,,,,,,3*1F
[2024-02-17 22:06:04.956] $GPGSV,2,1,06,01,,,43,17,,,44,14,,,50,10,,,37,1*64
[2024-02-17 22:06:05.009] $GPGSV,2,2,06,22,,,39,32,,,32,1*68
[2024-02-17 22:06:05.050] $GAGSV,1,1,03,12,,,41,08,,,27,31,,,40,7*7D
[2024-02-17 22:06:05.083] $GNRMC,210557.286,V,,,,,,,170224,,,N,V*23
[2024-02-17 22:06:05.860] $GNGLL,,,,,210558.286,V,N*63
[2024-02-17 22:06:05.894] $GNGSA,A,1,,,,,,,,,,,,,,,,1*1D
[2024-02-17 22:06:05.921] $GNGSA,A,1,,,,,,,,,,,,,,,,3*1F
[2024-02-17 22:06:05.955] $GPGSV,2,1,06,01,,,43,17,,,44,14,,,50,10,,,37,1*64
[2024-02-17 22:06:06.009] $GPGSV,2,2,06,22,,,39,32,,,32,1*68
[2024-02-17 22:06:06.044] $GAGSV,1,1,03,12,,,41,08,,,27,31,,,40,7*7D
[2024-02-17 22:06:06.093] $GNRMC,210558.286,V,,,,,,,170224,,,N,V*2C
[2024-02-17 22:06:06.853] $GNGLL,,,,,210559.286,V,N*62
[2024-02-17 22:06:06.893] $GNGSA,A,1,,,,,,,,,,,,,,,,1*1D
[2024-02-17 22:06:06.916] $GNGSA,A,1,,,,,,,,,,,,,,,,3*1F
[2024-02-17 22:06:06.954] $GPGSV,2,1,06,01,,,43,17,,,44,14,,,50,10,,,37,1*64
[2024-02-17 22:06:07.012] $GPGSV,2,2,06,22,,,39,32,,,32,1*68
[2024-02-17 22:06:07.050] $GAGSV,1,1,03,12,,,41,08,,,27,31,,,40,7*7D
[2024-02-17 22:06:07.091] $GNRMC,210559.286,V,,,,,,,170224,,,N,V*2D
[2024-02-17 22:06:07.678] $GNGLL,,,,,210600.086,V,N*6F
[2024-02-17 22:06:07.712] $GNGSA,A,1,,,,,,,,,,,,,,,,1*1D
[2024-02-17 22:06:07.739] $GNGSA,A,1,,,,,,,,,,,,,,,,3*1F
[2024-02-17 22:06:07.771] $GPGSV,2,1,06,01,,,43,17,,,44,14,,,50,10,,,37,1*64
[2024-02-17 22:06:07.819] $GPGSV,2,2,06,22,,,39,32,,,32,1*68
[2024-02-17 22:06:07.864] $GAGSV,1,1,03,12,,,41,08,,,27,31,,,40,7*7D
[2024-02-17 22:06:07.899] $GNRMC,210600.086,V,,,,,,,170224,,,N,V*20
[2024-02-17 22:06:08.659] $GNGLL,,,,,210601.091,V,N*68
[2024-02-17 22:06:08.697] $GNGSA,A,1,,,,,,,,,,,,,,,,1*1D
[2024-02-17 22:06:08.722] $GNGSA,A,1,,,,,,,,,,,,,,,,3*1F
[2024-02-17 22:06:08.756] $GPGSV,2,1,05,17,,,44,14,,,50,10,,,37,22,,,39,1*6B
[2024-02-17 22:06:08.817] $GPGSV,2,2,05,32,,,32,1*61
[2024-02-17 22:06:08.842] $GAGSV,1,1,03,12,,,41,08,,,27,31,,,40,7*7D
[2024-02-17 22:06:08.892] $GNRMC,210601.091,V,,,,,,,170224,,,N,V*27
[2024-02-17 22:06:09.666] $GNGLL,,,,,210602.091,V,N*6B
[2024-02-17 22:06:09.699] $GNGSA,A,1,,,,,,,,,,,,,,,,1*1D
[2024-02-17 22:06:09.729] $GNGSA,A,1,,,,,,,,,,,,,,,,3*1F
[2024-02-17 22:06:09.762] $GPGSV,2,1,05,17,,,44,14,,,50,10,,,36,22,,,39,1*6A
[2024-02-17 22:06:09.818] $GPGSV,2,2,05,32,,,31,1*62
[2024-02-17 22:06:09.846] $GAGSV,1,1,03,12,,,41,08,,,27,31,,,40,7*7D
[2024-02-17 22:06:09.892] $GNRMC,210602.091,V,,,,,,,170224,,,N,V*24
[2024-02-17 22:06:10.669] $GNGLL,,,,,210603.091,V,N*6A
[2024-02-17 22:06:10.692] $GNGSA,A,1,,,,,,,,,,,,,,,,1*1D
[2024-02-17 22:06:10.727] $GNGSA,A,1,,,,,,,,,,,,,,,,3*1F
[2024-02-17 22:06:10.761] $GPGSV,2,1,05,17,,,44,14,,,50,10,,,36,22,,,39,1*6A
[2024-02-17 22:06:10.816] $GPGSV,2,2,05,32,,,31,1*62
[2024-02-17 22:06:10.842] $GAGSV,1,1,03,12,,,41,08,,,27,31,,,40,7*7D
[2024-02-17 22:06:10.890] $GNRMC,210603.091,V,,,,,,,170224,,,N,V*25
[2024-02-17 22:06:11.669] $GNGLL,,,,,210604.091,V,N*6D
[2024-02-17 22:06:11.695] $GNGSA,A,1,,,,,,,,,,,,,,,,1*1D
[2024-02-17 22:06:11.730] $GNGSA,A,1,,,,,,,,,,,,,,,,3*1F
[2024-02-17 22:06:11.763] $GPGSV,2,1,06,17,,,44,14,,,50,23,,,22,10,,,36,1*62
[2024-02-17 22:06:11.815] $GPGSV,2,2,06,22,,,39,32,,,32,1*68
[2024-02-17 22:06:11.853] $GAGSV,1,1,03,12,,,41,08,,,27,31,,,40,7*7D
[2024-02-17 22:06:11.899] $GNRMC,210604.091,V,,,,,,,170224,,,N,V*22
[2024-02-17 22:06:12.670] $GNGLL,,,,,210605.091,V,N*6C
[2024-02-17 22:06:12.692] $GNGSA,A,1,,,,,,,,,,,,,,,,1*1D
[2024-02-17 22:06:12.722] $GNGSA,A,1,,,,,,,,,,,,,,,,3*1F
[2024-02-17 22:06:12.761] $GPGSV,2,1,05,17,,,44,14,,,50,10,,,36,22,,,39,1*6A
[2024-02-17 22:06:12.818] $GPGSV,2,2,05,32,,,32,1*61
[2024-02-17 22:06:12.839] $GAGSV,1,1,03,12,,,41,08,,,27,31,,,40,7*7D
[2024-02-17 22:06:12.892] $GNRMC,210605.091,V,,,,,,,170224,,,N,V*23
[2024-02-17 22:06:13.667] $GNGLL,,,,,210606.091,V,N*6F
[2024-02-17 22:06:13.701] $GNGSA,A,1,,,,,,,,,,,,,,,,1*1D
[2024-02-17 22:06:13.730] $GNGSA,A,1,,,,,,,,,,,,,,,,3*1F
[2024-02-17 22:06:13.763] $GPGSV,2,1,05,17,,,44,14,,,50,10,,,35,22,,,39,1*69
[2024-02-17 22:06:13.818] $GPGSV,2,2,05,32,,,31,1*62
[2024-02-17 22:06:13.848] $GAGSV,1,1,03,12,,,41,08,,,27,31,,,40,7*7D
[2024-02-17 22:06:13.893] $GNRMC,210606.091,V,,,,,,,170224,,,N,V*20
[2024-02-17 22:06:13.935] $GNGLL,,,,,210606.311,V,N*64
[2024-02-17 22:06:13.968] $GNGSA,A,1,,,,,,,,,,,,,,,,1*1D
[2024-02-17 22:06:13.999] $GNGSA,A,1,,,,,,,,,,,,,,,,3*1F
[2024-02-17 22:06:14.034] $GPGSV,2,1,05,17,,,44,14,,,50,10,,,35,22,,,39,1*69
[2024-02-17 22:06:14.092] $GPGSV,2,2,05,32,,,31,1*62
[2024-02-17 22:06:14.118] $GAGSV,1,1,03,12,,,41,08,,,27,31,,,40,7*7D
[2024-02-17 22:06:14.163] $GNRMC,210606.311,V,,,,,,,170224,,,N,V*2B
[2024-02-17 22:06:14.907] $GNGLL,,,,,210607.311,V,N*65
[2024-02-17 22:06:14.941] $GNGSA,A,1,,,,,,,,,,,,,,,,1*1D
[2024-02-17 22:06:14.972] $GNGSA,A,1,,,,,,,,,,,,,,,,3*1F
[2024-02-17 22:06:15.005] $GPGSV,2,1,07,09,,,24,14,,,50,10,,,35,17,,,44,1*6E
[2024-02-17 22:06:15.059] $GPGSV,2,2,07,22,,,39,32,,,31,19,,,24,1*64
[2024-02-17 22:06:15.105] $GAGSV,1,1,03,12,,,41,08,,,27,31,,,40,7*7D
[2024-02-17 22:06:15.152] $GNRMC,210607.311,V,,,,,,,170224,,,N,V*2A
[2024-02-17 22:06:15.913] $GNGLL,,,,,210608.311,V,N*6A
[2024-02-17 22:06:15.946] $GNGSA,A,1,,,,,,,,,,,,,,,,1*1D
[2024-02-17 22:06:15.977] $GNGSA,A,1,,,,,,,,,,,,,,,,3*1F
[2024-02-17 22:06:16.012] $GPGSV,2,1,07,17,17,320,44,22,15,313,39,14,14,291,50,25,,,26,1*52
[2024-02-17 22:06:16.082] $GPGSV,2,2,07,08,,,30,10,,,35,32,,,30,1*6D
[2024-02-17 22:06:16.126] $GAGSV,1,1,03,08,19,040,27,31,12,264,40,12,,,41,7*72
[2024-02-17 22:06:16.186] $GNRMC,210608.311,V,,,,,,,170224,,,N,V*25
[2024-02-17 22:06:16.222] $PAIR001,021,0*38
[2024-02-17 22:06:16.246] $PAIR021,AG3352Q_V2.3.0.AG3352_20230213,S,N,2b31f59,2209141904,2b9,0,,,d32ef91c,2209141902,571d3e7,2209141904,,,-15.48,-15.48,-14.02,-15.48,0,1,##,0,0*6D
[2024-02-17 22:06:17.408] 
[2024-02-17 22:06:17.583] $GNGLL,,,,,210610.000,V,N*60
[2024-02-17 22:06:17.616] $GNGSA,A,1,,,,,,,,,,,,,,,,1*1D
[2024-02-17 22:06:17.652] $GNGSA,A,1,,,,,,,,,,,,,,,,3*1F
[2024-02-17 22:06:17.685] $GPGSV,2,1,07,36,29,166,,17,17,320,44,22,15,313,39,14,14,291,50,1*6E
[2024-02-17 22:06:17.759] $GPGSV,2,2,07,08,,,35,10,,,35,02,,,31,1*6A
[2024-02-17 22:06:17.804] $GAGSV,1,1,03,08,19,040,27,31,12,264,39,12,,,41,7*7C
[2024-02-17 22:06:17.862] $GNRMC,210610.000,V,,,,,,,170224,,,N,V*2F
[2024-02-17 22:06:18.598] $GNGLL,,,,,210611.000,V,N*61
[2024-02-17 22:06:18.629] $GNGSA,A,1,,,,,,,,,,,,,,,,1*1D
[2024-02-17 22:06:18.661] $GNGSA,A,1,,,,,,,,,,,,,,,,3*1F
[2024-02-17 22:06:18.693] $GPGSV,2,1,08,36,29,166,,17,17,320,44,22,15,313,39,14,14,291,50,1*61
[2024-02-17 22:06:18.766] $GPGSV,2,2,08,08,,,34,10,,,35,21,,,31,02,,,33,1*67
[2024-02-17 22:06:18.819] $GAGSV,1,1,03,08,19,040,27,31,12,264,39,12,,,41,7*7C
[2024-02-17 22:06:18.872] $GNRMC,210611.000,V,,,,,,,170224,,,N,V*2E
[2024-02-17 22:06:19.586] $GNGLL,,,,,210612.000,V,N*62
[2024-02-17 22:06:19.631] $GNGSA,A,1,,,,,,,,,,,,,,,,1*1D
[2024-02-17 22:06:19.663] $GNGSA,A,1,,,,,,,,,,,,,,,,3*1F
[2024-02-17 22:06:19.695] $GPGSV,3,1,09,36,29,166,,17,17,320,44,22,15,313,39,14,14,291,50,1*61
[2024-02-17 22:06:19.762] $GPGSV,3,2,09,08,,,35,10,,,35,21,,,31,02,,,33,1*66
[2024-02-17 22:06:19.822] $GPGSV,3,3,09,11,,,22,1*6D
[2024-02-17 22:06:19.850] $GAGSV,1,1,03,08,19,040,27,31,12,264,39,12,,,41,7*7C
[2024-02-17 22:06:19.904] $GNRMC,210612.000,V,,,,,,,170224,,,N,V*2D
[2024-02-17 22:06:20.602] $GNGLL,,,,,210613.000,V,N*63
[2024-02-17 22:06:20.620] $GNGSA,A,1,,,,,,,,,,,,,,,,1*1D
[2024-02-17 22:06:20.664] $GNGSA,A,1,,,,,,,,,,,,,,,,3*1F
[2024-02-17 22:06:20.696] $GPGSV,2,1,08,36,29,166,,17,17,320,44,22,15,313,39,14,14,291,50,1*61
[2024-02-17 22:06:20.766] $GPGSV,2,2,08,08,,,35,10,,,35,21,,,32,02,,,33,1*65
[2024-02-17 22:06:20.823] $GAGSV,1,1,03,08,19,040,27,31,12,264,39,12,,,41,7*7C
[2024-02-17 22:06:20.879] $GNRMC,210613.000,V,,,,,,,170224,,,N,V*2C
[2024-02-17 22:06:21.597] $GNGLL,,,,,210614.000,V,N*64
[2024-02-17 22:06:21.632] $GNGSA,A,1,,,,,,,,,,,,,,,,1*1D
[2024-02-17 22:06:21.661] $GNGSA,A,1,,,,,,,,,,,,,,,,3*1F
[2024-02-17 22:06:21.694] $GPGSV,2,1,08,36,29,166,,17,17,320,44,22,15,313,39,14,14,291,50,1*61
[2024-02-17 22:06:21.766] $GPGSV,2,2,08,08,,,35,10,,,35,21,,,32,02,,,34,1*62
[2024-02-17 22:06:21.821] $GAGSV,1,1,03,08,19,040,27,31,12,264,39,12,,,41,7*7C
[2024-02-17 22:06:21.876] $GNRMC,210614.000,V,,,,,,,170224,,,N,V*2B
[2024-02-17 22:06:22.595] $GNGLL,,,,,210615.000,V,N*65
[2024-02-17 22:06:22.627] $GNGSA,A,1,,,,,,,,,,,,,,,,1*1D
[2024-02-17 22:06:22.659] $GNGSA,A,1,,,,,,,,,,,,,,,,3*1F
[2024-02-17 22:06:22.691] $GPGSV,2,1,08,36,29,166,,17,17,320,44,22,15,313,39,14,14,291,50,1*61
[2024-02-17 22:06:22.770] $GPGSV,2,2,08,08,,,35,10,,,35,21,,,32,02,,,34,1*62
[2024-02-17 22:06:22.822] $GAGSV,1,1,03,08,19,040,27,31,12,264,39,12,,,41,7*7C
[2024-02-17 22:06:22.881] $GNRMC,210615.000,V,,,,,,,170224,,,N,V*2A
[2024-02-17 22:06:23.599] $GNGLL,,,,,210616.000,V,N*66
[2024-02-17 22:06:23.623] $GNGSA,A,1,,,,,,,,,,,,,,,,1*1D
[2024-02-17 22:06:23.655] $GNGSA,A,1,,,,,,,,,,,,,,,,3*1F
[2024-02-17 22:06:23.692] $GPGSV,2,1,08,36,29,166,,17,17,320,44,22,15,313,39,14,14,291,50,1*61
[2024-02-17 22:06:23.766] $GPGSV,2,2,08,08,,,35,10,,,35,21,,,32,02,,,33,1*65
[2024-02-17 22:06:23.819] $GAGSV,1,1,03,08,19,040,27,31,12,264,39,12,,,41,7*7C
[2024-02-17 22:06:23.878] $GNRMC,210616.000,V,,,,,,,170224,,,N,V*29
[2024-02-17 22:06:24.597] $GNGLL,,,,,210617.000,V,N*67
[2024-02-17 22:06:24.627] $GNGSA,A,1,,,,,,,,,,,,,,,,1*1D
[2024-02-17 22:06:24.662] $GNGSA,A,1,,,,,,,,,,,,,,,,3*1F
[2024-02-17 22:06:24.695] $GPGSV,3,1,09,36,29,166,,17,17,320,44,22,15,313,39,14,14,291,50,1*61
[2024-02-17 22:06:24.768] $GPGSV,3,2,09,08,,,35,10,,,35,21,,,32,03,,,36,1*61
[2024-02-17 22:06:24.822] $GPGSV,3,3,09,02,,,34,1*68
[2024-02-17 22:06:24.851] $GAGSV,1,1,03,08,19,040,27,31,12,264,39,12,,,41,7*7C
[2024-02-17 22:06:24.907] $GNRMC,210617.000,V,,,,,,,170224,,,N,V*28
[2024-02-17 22:06:25.595] $GNGLL,,,,,210618.000,V,N*68
[2024-02-17 22:06:25.622] $GNGSA,A,1,,,,,,,,,,,,,,,,1*1D
[2024-02-17 22:06:25.657] $GNGSA,A,1,,,,,,,,,,,,,,,,3*1F
[2024-02-17 22:06:25.686] $GPGSV,2,1,08,17,17,320,44,22,15,313,39,14,14,291,50,02,,,34,1*5B
[2024-02-17 22:06:25.759] $GPGSV,2,2,08,08,,,35,10,,,35,21,,,32,03,,,36,1*61
[2024-02-17 22:06:25.816] $GAGSV,1,1,03,08,19,040,27,12,12,295,41,31,12,264,39,7*41
[2024-02-17 22:06:25.873] $GNRMC,210618.000,V,,,,,,,170224,,,N,V*27
[2024-02-17 22:06:26.601] $GNGLL,,,,,210619.000,V,N*69
[2024-02-17 22:06:26.625] $GNGSA,A,1,,,,,,,,,,,,,,,,1*1D
[2024-02-17 22:06:26.669] $GNGSA,A,1,,,,,,,,,,,,,,,,3*1F
[2024-02-17 22:06:26.698] $GPGSV,3,1,09,49,29,155,,10,23,066,35,17,17,320,44,22,15,313,39,1*60
[2024-02-17 22:06:26.768] $GPGSV,3,2,09,14,14,291,50,08,,,35,21,,,32,03,,,35,1*5A
[2024-02-17 22:06:26.832] $GPGSV,3,3,09,02,,,34,1*68
[2024-02-17 22:06:26.856] $GAGSV,1,1,03,08,19,040,27,12,12,295,41,31,12,264,39,7*41
[2024-02-17 22:06:26.919] $GNRMC,210619.000,V,,,,,,,170224,,,N,V*26
[2024-02-17 22:06:27.602] $GNGLL,,,,,210620.000,V,N*63
[2024-02-17 22:06:27.632] $GNGSA,A,1,,,,,,,,,,,,,,,,1*1D
[2024-02-17 22:06:27.666] $GNGSA,A,1,,,,,,,,,,,,,,,,3*1F
[2024-02-17 22:06:27.695] $GPGSV,3,1,10,49,29,155,,10,23,066,35,17,17,320,44,22,15,313,39,1*68
[2024-02-17 22:06:27.769] $GPGSV,3,2,10,14,14,291,50,08,,,35,21,,,32,03,,,36,1*51
[2024-02-17 22:06:27.828] $GPGSV,3,3,10,02,,,34,24,,,21,1*65
[2024-02-17 22:06:27.868] $GAGSV,1,1,03,08,19,040,27,12,12,295,41,31,12,264,39,7*41
[2024-02-17 22:06:27.927] $GNRMC,210620.000,V,,,,,,,170224,,,N,V*2C
[2024-02-17 22:06:28.604] $GNGLL,,,,,210621.000,V,N*62
[2024-02-17 22:06:28.637] $GNGSA,A,1,,,,,,,,,,,,,,,,1*1D
[2024-02-17 22:06:28.668] $GNGSA,A,1,,,,,,,,,,,,,,,,3*1F
[2024-02-17 22:06:28.701] $GPGSV,3,1,09,49,29,155,,10,23,066,35,17,17,320,44,22,15,313,39,1*60
[2024-02-17 22:06:28.773] $GPGSV,3,2,09,14,14,291,50,08,,,35,21,,,32,03,,,34,1*5B
[2024-02-17 22:06:28.834] $GPGSV,3,3,09,02,,,34,1*68
[2024-02-17 22:06:28.862] $GAGSV,1,1,03,08,19,040,27,12,12,295,41,31,12,264,39,7*41
[2024-02-17 22:06:28.925] $GNRMC,210621.000,V,,,,,,,170224,,,N,V*2D
[2024-02-17 22:06:29.606] $GNGLL,5216.693086,N,02048.554544,E,210622.000,A,A*4F
[2024-02-17 22:06:29.647] $GNGSA,A,3,10,17,22,14,,,,,,,,,1.87,1.59,1.00,1*01
[2024-02-17 22:06:29.708] $GNGSA,A,3,08,12,31,,,,,,,,,,1.87,1.59,1.00,3*08
[2024-02-17 22:06:29.761] $GPGSV,3,1,09,49,29,155,28,10,23,066,35,17,17,320,44,22,15,313,39,1*6A
[2024-02-17 22:06:29.841] $GPGSV,3,2,09,14,14,291,50,08,,,35,21,,,32,03,,,34,1*5B
[2024-02-17 22:06:29.898] $GPGSV,3,3,09,02,,,33,1*6F
[2024-02-17 22:06:29.928] $GAGSV,1,1,03,08,19,040,27,12,12,295,41,31,12,264,39,7*41
[2024-02-17 22:06:29.990] $GNRMC,210622.000,A,5216.693086,N,02048.554544,E,0.01,0.00,170224,,,A,V*01
[2024-02-17 22:06:30.599] $GNGLL,5216.693020,N,02048.554340,E,210623.000,A,A*40
[2024-02-17 22:06:30.656] $GNGSA,A,3,10,17,22,14,,,,,,,,,1.87,1.59,1.00,1*01
[2024-02-17 22:06:30.711] $GNGSA,A,3,08,12,31,,,,,,,,,,1.87,1.59,1.00,3*08
[2024-02-17 22:06:30.766] $GPGSV,3,1,10,49,29,155,27,10,23,066,35,17,17,320,44,22,15,313,39,1*6D
[2024-02-17 22:06:30.837] $GPGSV,3,2,10,14,14,291,50,21,,,33,03,,,34,02,,,32,1*5F
[2024-02-17 22:06:30.898] $GPGSV,3,3,10,15,,,18,08,,,35,1*66
[2024-02-17 22:06:30.933] $GAGSV,1,1,03,08,19,040,27,12,12,295,41,31,12,264,39,7*41
[2024-02-17 22:06:30.998] $GNRMC,210623.000,A,5216.693020,N,02048.554340,E,0.01,0.00,170224,,,A,V*0E
[2024-02-17 22:06:31.597] $GNGLL,5216.692960,N,02048.553992,E,210624.000,A,A*49
[2024-02-17 22:06:31.656] $GNGSA,A,3,10,17,22,14,,,,,,,,,1.87,1.59,1.00,1*01
[2024-02-17 22:06:31.708] $GNGSA,A,3,08,12,31,,,,,,,,,,1.87,1.59,1.00,3*08
[2024-02-17 22:06:31.759] $GPGSV,3,1,10,49,29,155,28,10,23,066,35,17,17,320,44,22,15,313,39,1*62
[2024-02-17 22:06:31.838] $GPGSV,3,2,10,14,14,291,50,21,,,33,03,,,34,02,,,32,1*5F
[2024-02-17 22:06:31.894] $GPGSV,3,3,10,09,,,25,08,,,35,1*65
[2024-02-17 22:06:31.934] $GAGSV,1,1,03,08,19,040,27,12,12,295,41,31,12,264,39,7*41
[2024-02-17 22:06:31.994] $GNRMC,210624.000,A,5216.692960,N,02048.553992,E,0.02,0.00,170224,,,A,V*04
[2024-02-17 22:06:32.604] $GNGLL,5216.693098,N,02048.554544,E,210625.000,A,A*47
[2024-02-17 22:06:32.656] $GNGSA,A,3,10,17,22,14,,,,,,,,,1.87,1.59,1.00,1*01
[2024-02-17 22:06:32.704] $GNGSA,A,3,08,12,31,,,,,,,,,,1.87,1.59,1.00,3*08
[2024-02-17 22:06:32.755] $GPGSV,3,1,09,49,29,155,,10,23,066,35,17,17,320,44,22,15,313,39,1*60
[2024-02-17 22:06:32.837] $GPGSV,3,2,09,14,14,291,50,08,,,35,21,,,33,03,,,34,1*5A
[2024-02-17 22:06:32.898] $GPGSV,3,3,09,02,,,31,1*6D
[2024-02-17 22:06:32.926] $GAGSV,1,1,03,08,19,040,27,12,12,295,41,31,12,264,39,7*41
[2024-02-17 22:06:32.974] $GNRMC,210625.000,A,5216.693098,N,02048.554544,E,0.03,0.00,170224,,,A,V*0B
[2024-02-17 22:06:33.606] $GNGLL,5216.693140,N,02048.554604,E,210626.000,A,A*47
[2024-02-17 22:06:33.660] $GNGSA,A,3,10,17,22,14,,,,,,,,,1.87,1.59,1.00,1*01
[2024-02-17 22:06:33.705] $GNGSA,A,3,08,12,31,,,,,,,,,,1.87,1.59,1.00,3*08
[2024-02-17 22:06:33.766] $GPGSV,3,1,09,49,29,155,28,10,23,066,35,17,17,320,44,22,15,313,39,1*6A
[2024-02-17 22:06:33.841] $GPGSV,3,2,09,14,14,291,50,08,,,35,21,,,33,03,,,34,1*5A
[2024-02-17 22:06:33.901] $GPGSV,3,3,09,02,,,31,1*6D
[2024-02-17 22:06:33.924] $GAGSV,1,1,03,08,19,040,27,12,12,295,41,31,12,264,39,7*41
[2024-02-17 22:06:33.990] $GNRMC,210626.000,A,5216.693140,N,02048.554604,E,0.02,0.00,170224,,,A,V*0A
[2024-02-17 22:06:34.600] $GNGLL,5216.693104,N,02048.554400,E,210627.000,A,A*40
[2024-02-17 22:06:34.654] $GNGSA,A,3,10,17,22,14,,,,,,,,,1.87,1.59,1.00,1*01
[2024-02-17 22:06:34.709] $GNGSA,A,3,08,12,31,,,,,,,,,,1.87,1.59,1.00,3*08
[2024-02-17 22:06:34.759] $GPGSV,2,1,08,10,23,066,36,17,17,320,44,22,15,313,39,14,14,291,50,1*6B
[2024-02-17 22:06:34.836] $GPGSV,2,2,08,08,,,35,21,,,33,03,,,34,02,,,31,1*65
[2024-02-17 22:06:34.888] $GAGSV,1,1,03,08,19,040,27,12,12,295,41,31,12,264,39,7*41
[2024-02-17 22:06:34.952] $GNRMC,210627.000,A,5216.693104,N,02048.554400,E,0.01,0.00,170224,,,A,V*0E
[2024-02-17 22:06:35.601] $GNGLL,5216.693206,N,02048.554184,E,210628.000,A,A*47
[2024-02-17 22:06:35.654] $GNGSA,A,3,10,17,22,14,,,,,,,,,1.87,1.59,1.00,1*01
[2024-02-17 22:06:35.705] $GNGSA,A,3,08,12,31,,,,,,,,,,1.87,1.59,1.00,3*08
[2024-02-17 22:06:35.761] $GPGSV,3,1,09,10,23,066,36,40,22,139,,17,17,320,44,22,15,313,40,1*65
[2024-02-17 22:06:35.833] $GPGSV,3,2,09,14,14,291,50,08,,,35,21,,,33,03,,,34,1*5A
[2024-02-17 22:06:35.892] $GPGSV,3,3,09,02,,,31,1*6D
[2024-02-17 22:06:35.922] $GAGSV,1,1,03,08,19,040,27,12,12,295,41,31,12,264,39,7*41
[2024-02-17 22:06:35.982] $GNRMC,210628.000,A,5216.693206,N,02048.554184,E,0.01,0.00,170224,,,A,V*09
[2024-02-17 22:06:36.597] $GNGLL,5216.693368,N,02048.554514,E,210629.000,A,A*42
[2024-02-17 22:06:36.654] $GNGSA,A,3,10,17,22,14,,,,,,,,,1.87,1.59,1.00,1*01
[2024-02-17 22:06:36.707] $GNGSA,A,3,08,12,31,,,,,,,,,,1.87,1.59,1.00,3*08
[2024-02-17 22:06:36.759] $GPGSV,3,1,10,10,23,066,36,40,22,139,,17,17,320,44,22,15,313,40,1*6D
[2024-02-17 22:06:36.835] $GPGSV,3,2,10,14,14,291,50,08,,,35,21,,,34,03,,,34,1*55
[2024-02-17 22:06:36.892] $GPGSV,3,3,10,02,,,31,29,,,23,1*6F
[2024-02-17 22:06:36.931] $GAGSV,1,1,03,08,19,040,27,12,12,295,41,31,12,264,39,7*41
[2024-02-17 22:06:36.991] $GNRMC,210629.000,A,5216.693368,N,02048.554514,E,0.05,0.00,170224,,,A,V*08
[2024-02-17 22:06:37.603] $GNGLL,5216.693338,N,02048.554070,E,210630.000,A,A*48
[2024-02-17 22:06:37.657] $GNGSA,A,3,10,17,22,14,,,,,,,,,1.87,1.59,1.00,1*01
[2024-02-17 22:06:37.705] $GNGSA,A,3,08,12,31,,,,,,,,,,1.87,1.59,1.00,3*08
[2024-02-17 22:06:37.762] $GPGSV,3,1,09,10,23,066,36,40,22,139,,17,17,320,44,22,15,313,40,1*65
[2024-02-17 22:06:37.831] $GPGSV,3,2,09,14,14,291,50,08,,,35,21,,,34,03,,,34,1*5D
[2024-02-17 22:06:37.893] $GPGSV,3,3,09,02,,,31,1*6D
[2024-02-17 22:06:37.922] $GAGSV,1,1,03,08,19,040,27,12,12,295,41,31,12,264,39,7*41
[2024-02-17 22:06:37.984] $GNRMC,210630.000,A,5216.693338,N,02048.554070,E,0.04,0.00,170224,,,A,V*03
[2024-02-17 22:06:38.617] $GNGLL,5216.693722,N,02048.553242,E,210631.000,A,A*42
[2024-02-17 22:06:38.669] $GNGSA,A,3,21,02,08,10,17,22,14,,,,,,1.22,0.92,0.80,1*08
[2024-02-17 22:06:38.732] $GNGSA,A,3,08,31,12,,,,,,,,,,1.22,0.92,0.80,3*08
[2024-02-17 22:06:38.784] $GPGSV,3,1,09,21,86,195,34,02,72,290,31,08,36,194,35,10,23,066,36,1*64
[2024-02-17 22:06:38.854] $GPGSV,3,2,09,40,22,139,,17,17,320,44,22,15,312,40,14,14,291,50,1*6D
[2024-02-17 22:06:38.931] $GPGSV,3,3,09,03,,,34,1*69
[2024-02-17 22:06:38.957] $GAGSV,1,1,03,08,19,040,27,31,12,264,39,12,12,295,41,7*41
[2024-02-17 22:06:39.021] $GNRMC,210631.000,A,5216.693722,N,02048.553242,E,0.03,0.00,170224,,,A,V*0E
[2024-02-17 22:06:39.606] $GNGLL,5216.694142,N,02048.552822,E,210632.000,A,A*4B
[2024-02-17 22:06:39.666] $GNGSA,A,3,21,02,08,10,17,22,14,,,,,,1.22,0.92,0.80,1*08
[2024-02-17 22:06:39.724] $GNGSA,A,3,08,31,12,,,,,,,,,,1.22,0.92,0.80,3*08
[2024-02-17 22:06:39.780] $GPGSV,3,1,09,21,86,195,34,02,72,290,32,08,36,194,35,10,23,066,36,1*67
[2024-02-17 22:06:39.850] $GPGSV,3,2,09,40,22,139,,17,17,320,44,22,15,312,40,14,14,291,50,1*6D
[2024-02-17 22:06:39.926] $GPGSV,3,3,09,03,,,34,1*69
[2024-02-17 22:06:39.954] $GAGSV,1,1,03,08,19,040,27,31,12,264,39,12,12,295,41,7*41
[2024-02-17 22:06:40.016] $GNRMC,210632.000,A,5216.694142,N,02048.552822,E,0.02,0.00,170224,,,A,V*06
[2024-02-17 22:06:40.609] $GNGLL,5216.694448,N,02048.552684,E,210633.000,A,A*47
[2024-02-17 22:06:40.663] $GNGSA,A,3,21,02,08,10,17,22,14,,,,,,1.22,0.92,0.80,1*08
[2024-02-17 22:06:40.720] $GNGSA,A,3,08,31,12,,,,,,,,,,1.22,0.92,0.80,3*08
[2024-02-17 22:06:40.774] $GPGSV,3,1,09,21,86,195,34,02,72,290,32,08,36,194,35,10,23,066,36,1*67
[2024-02-17 22:06:40.849] $GPGSV,3,2,09,40,22,139,,17,17,320,44,22,15,312,40,14,14,291,50,1*6D
[2024-02-17 22:06:40.921] $GPGSV,3,3,09,03,,,34,1*69
[2024-02-17 22:06:40.952] $GAGSV,1,1,03,08,19,040,27,31,12,264,39,12,12,295,41,7*41
[2024-02-17 22:06:41.013] $GNRMC,210633.000,A,5216.694448,N,02048.552684,E,0.00,0.00,170224,,,A,V*08
[2024-02-17 22:06:41.601] $GNGLL,5216.694718,N,02048.552564,E,210634.000,A,A*4B
[2024-02-17 22:06:41.654] $GNGSA,A,3,21,02,08,10,17,22,14,,,,,,1.22,0.92,0.80,1*08
[2024-02-17 22:06:41.717] $GNGSA,A,3,08,31,12,,,,,,,,,,1.22,0.92,0.80,3*08
[2024-02-17 22:06:41.759] $GPGSV,3,1,09,21,86,195,34,02,72,290,33,08,36,194,35,10,23,066,36,1*66
[2024-02-17 22:06:41.840] $GPGSV,3,2,09,40,22,139,,17,17,320,44,22,15,312,41,14,14,291,50,1*6C
[2024-02-17 22:06:41.917] $GPGSV,3,3,09,03,,,34,1*69
[2024-02-17 22:06:41.943] $GAGSV,1,1,03,08,19,040,27,31,12,264,39,12,12,295,41,7*41
[2024-02-17 22:06:42.005] $GNRMC,210634.000,A,5216.694718,N,02048.552564,E,0.01,0.00,170224,,,A,V*05
[2024-02-17 22:06:42.601] $GNGLL,5216.694946,N,02048.552396,E,210635.000,A,A*44
[2024-02-17 22:06:42.656] $GNGSA,A,3,21,02,08,10,17,22,14,,,,,,1.22,0.92,0.80,1*08
[2024-02-17 22:06:42.706] $GNGSA,A,3,08,31,12,,,,,,,,,,1.22,0.92,0.80,3*08
[2024-02-17 22:06:42.769] $GPGSV,3,1,09,21,86,195,34,02,72,290,33,08,36,194,35,10,23,066,36,1*66
[2024-02-17 22:06:42.843] $GPGSV,3,2,09,40,22,139,,17,17,320,44,22,15,312,41,14,14,291,50,1*6C
[2024-02-17 22:06:42.915] $GPGSV,3,3,09,03,,,34,1*69
[2024-02-17 22:06:42.944] $GAGSV,1,1,03,08,19,040,27,31,12,264,39,12,12,295,41,7*41
[2024-02-17 22:06:43.004] $GNRMC,210635.000,A,5216.694946,N,02048.552396,E,0.01,0.00,170224,,,A,V*0A
[2024-02-17 22:06:43.594] $GNGLL,5216.695090,N,02048.552234,E,210636.000,A,A*4D
[2024-02-17 22:06:43.657] $GNGSA,A,3,21,02,08,10,17,22,14,,,,,,1.22,0.92,0.80,1*08
[2024-02-17 22:06:43.715] $GNGSA,A,3,08,12,31,,,,,,,,,,1.22,0.92,0.80,3*08
[2024-02-17 22:06:43.770] $GPGSV,2,1,08,21,86,195,34,02,72,290,33,08,36,194,35,10,23,066,36,1*66
[2024-02-17 22:06:43.835] $GPGSV,2,2,08,17,17,320,44,22,15,312,41,14,14,291,50,03,,,34,1*57
[2024-02-17 22:06:43.916] $GAGSV,1,1,03,08,19,040,27,12,12,295,41,31,12,264,39,7*41
[2024-02-17 22:06:43.974] $GNRMC,210636.000,A,5216.695090,N,02048.552234,E,0.01,0.00,170224,,,A,V*03
[2024-02-17 22:06:44.601] $GNGLL,5216.695216,N,02048.552162,E,210637.000,A,A*40
[2024-02-17 22:06:44.655] $GNGSA,A,3,21,02,08,10,17,22,14,,,,,,1.22,0.92,0.80,1*08
[2024-02-17 22:06:44.717] $GNGSA,A,3,08,31,12,,,,,,,,,,1.22,0.92,0.80,3*08
[2024-02-17 22:06:44.768] $GPGSV,3,1,09,21,86,195,34,02,72,290,33,08,36,194,35,10,23,066,36,1*66
[2024-02-17 22:06:44.844] $GPGSV,3,2,09,39,19,129,,17,17,320,44,22,15,312,41,14,14,291,50,1*6B
[2024-02-17 22:06:44.913] $GPGSV,3,3,09,03,,,34,1*69
[2024-02-17 22:06:44.946] $GAGSV,1,1,03,08,19,040,27,31,12,264,39,12,12,295,41,7*41
[2024-02-17 22:06:45.002] $GNRMC,210637.000,A,5216.695216,N,02048.552162,E,0.00,0.00,170224,,,A,V*0F
[2024-02-17 22:06:45.602] $GNGLL,5216.695360,N,02048.552054,E,210638.000,A,A*4B
[2024-02-17 22:06:45.655] $GNGSA,A,3,21,02,08,10,17,22,14,,,,,,1.22,0.92,0.80,1*08
[2024-02-17 22:06:45.716] $GNGSA,A,3,08,31,12,,,,,,,,,,1.22,0.92,0.80,3*08
[2024-02-17 22:06:45.770] $GPGSV,3,1,09,21,86,195,34,02,72,290,33,08,36,194,35,10,23,066,36,1*66
[2024-02-17 22:06:45.844] $GPGSV,3,2,09,39,19,129,,17,17,320,44,22,15,312,41,14,14,291,50,1*6B
[2024-02-17 22:06:45.916] $GPGSV,3,3,09,03,,,34,1*69
[2024-02-17 22:06:45.947] $GAGSV,1,1,03,08,19,040,27,31,12,264,39,12,12,295,41,7*41
[2024-02-17 22:06:46.004] $GNRMC,210638.000,A,5216.695360,N,02048.552054,E,0.02,0.00,170224,,,A,V*06
[2024-02-17 22:06:46.603] $GNGLL,5216.695444,N,02048.552012,E,210639.000,A,A*49
[2024-02-17 22:06:46.659] $GNGSA,A,3,21,02,08,10,17,22,14,,,,,,1.22,0.92,0.80,1*08
[2024-02-17 22:06:46.727] $GNGSA,A,3,08,31,12,,,,,,,,,,1.22,0.92,0.80,3*08
[2024-02-17 22:06:46.770] $GPGSV,3,1,09,21,86,195,34,02,72,290,33,08,36,194,35,10,23,066,36,1*66
[2024-02-17 22:06:46.845] $GPGSV,3,2,09,39,19,129,,17,17,320,44,22,15,312,41,14,14,291,50,1*6B
[2024-02-17 22:06:46.924] $GPGSV,3,3,09,03,,,34,1*69
[2024-02-17 22:06:46.947] $GAGSV,1,1,03,08,19,040,27,31,12,264,39,12,12,295,41,7*41
[2024-02-17 22:06:47.008] $GNRMC,210639.000,A,5216.695444,N,02048.552012,E,0.01,0.00,170224,,,A,V*07
[2024-02-17 22:06:47.606] $GNGLL,5216.695654,N,02048.551934,E,210640.000,A,A*4A
[2024-02-17 22:06:47.660] $GNGSA,A,3,21,02,08,10,17,22,14,,,,,,1.22,0.92,0.80,1*08
[2024-02-17 22:06:47.721] $GNGSA,A,3,08,31,12,,,,,,,,,,1.22,0.92,0.80,3*08
[2024-02-17 22:06:47.776] $GPGSV,3,1,09,21,86,195,34,02,72,290,33,08,36,194,35,10,23,066,36,1*66
[2024-02-17 22:06:47.848] $GPGSV,3,2,09,39,19,129,,17,17,320,44,22,15,312,41,14,14,291,50,1*6B
[2024-02-17 22:06:47.914] $GPGSV,3,3,09,03,,,34,1*69
[2024-02-17 22:06:47.947] $GAGSV,1,1,03,08,19,040,27,31,12,264,39,12,12,295,41,7*41
[2024-02-17 22:06:48.012] $GNRMC,210640.000,A,5216.695654,N,02048.551934,E,0.01,0.00,170224,,,A,V*04
[2024-02-17 22:06:48.600] $GNGLL,5216.695732,N,02048.551916,E,210641.000,A,A*4A
[2024-02-17 22:06:48.657] $GNGSA,A,3,21,02,08,10,17,22,14,,,,,,1.22,0.92,0.80,1*08
[2024-02-17 22:06:48.716] $GNGSA,A,3,08,31,12,,,,,,,,,,1.22,0.92,0.80,3*08
[2024-02-17 22:06:48.769] $GPGSV,3,1,09,21,86,195,34,02,72,290,33,08,36,194,35,10,23,066,36,1*66
[2024-02-17 22:06:48.842] $GPGSV,3,2,09,39,19,129,,17,17,320,44,22,15,312,41,14,14,291,50,1*6B
[2024-02-17 22:06:48.916] $GPGSV,3,3,09,03,,,34,1*69
[2024-02-17 22:06:48.946] $GAGSV,1,1,03,08,19,040,27,31,12,264,39,12,12,295,41,7*41
[2024-02-17 22:06:49.006] $GNRMC,210641.000,A,5216.695732,N,02048.551916,E,0.02,0.00,170224,,,A,V*07
[2024-02-17 22:06:49.594] $GNGLL,5216.695882,N,02048.551934,E,210642.000,A,A*4D
[2024-02-17 22:06:49.659] $GNGSA,A,3,21,02,08,10,17,22,14,,,,,,1.22,0.92,0.80,1*08
[2024-02-17 22:06:49.721] $GNGSA,A,3,08,31,12,,,,,,,,,,1.22,0.92,0.80,3*08
[2024-02-17 22:06:49.772] $GPGSV,3,1,09,21,86,195,34,02,72,290,33,08,36,194,35,10,23,066,36,1*66
[2024-02-17 22:06:49.842] $GPGSV,3,2,09,39,19,129,,17,17,320,44,22,15,312,41,14,14,291,50,1*6B
[2024-02-17 22:06:49.918] $GPGSV,3,3,09,03,,,34,1*69
[2024-02-17 22:06:49.945] $GAGSV,1,1,03,08,19,040,27,31,12,264,39,12,12,295,41,7*41
[2024-02-17 22:06:50.010] $GNRMC,210642.000,A,5216.695882,N,02048.551934,E,0.01,0.00,170224,,,A,V*03
[2024-02-17 22:06:50.601] $GNGLL,5216.696014,N,02048.551952,E,210643.000,A,A*48
[2024-02-17 22:06:50.656] $GNGSA,A,3,21,02,08,10,17,22,14,,,,,,1.22,0.92,0.80,1*08
[2024-02-17 22:06:50.705] $GNGSA,A,3,08,31,12,,,,,,,,,,1.22,0.92,0.80,3*08
[2024-02-17 22:06:50.769] $GPGSV,3,1,09,21,86,195,34,02,72,290,33,08,36,194,35,10,23,066,36,1*66
[2024-02-17 22:06:50.843] $GPGSV,3,2,09,39,19,129,,17,17,320,44,22,15,312,41,14,14,291,50,1*6B
[2024-02-17 22:06:50.918] $GPGSV,3,3,09,03,,,34,1*69
[2024-02-17 22:06:50.939] $GAGSV,1,1,03,08,19,040,27,31,12,264,39,12,12,295,41,7*41
[2024-02-17 22:06:51.004] $GNRMC,210643.000,A,5216.696014,N,02048.551952,E,0.01,0.00,170224,,,A,V*06
[2024-02-17 22:06:51.604] $GNGLL,5216.696092,N,02048.551982,E,210644.000,A,A*4C
[2024-02-17 22:06:51.657] $GNGSA,A,3,21,02,08,10,17,22,14,,,,,,1.22,0.92,0.80,1*08
[2024-02-17 22:06:51.715] $GNGSA,A,3,08,31,12,,,,,,,,,,1.22,0.92,0.80,3*08
[2024-02-17 22:06:51.769] $GPGSV,3,1,09,21,86,195,34,02,72,290,33,08,36,194,35,10,23,066,36,1*66
[2024-02-17 22:06:51.843] $GPGSV,3,2,09,39,19,129,,17,17,320,44,22,15,312,41,14,14,291,50,1*6B
[2024-02-17 22:06:51.915] $GPGSV,3,3,09,03,,,34,1*69
[2024-02-17 22:06:51.938] $GAGSV,1,1,03,08,19,040,27,31,12,264,39,12,12,295,41,7*41
[2024-02-17 22:06:52.001] $GNRMC,210644.000,A,5216.696092,N,02048.551982,E,0.01,0.00,170224,,,A,V*02
[2024-02-17 22:06:52.605] $GNGLL,5216.696122,N,02048.551988,E,210645.000,A,A*4D
[2024-02-17 22:06:52.651] $GNGSA,A,3,21,02,08,10,17,22,14,,,,,,1.22,0.92,0.80,1*08
[2024-02-17 22:06:52.719] $GNGSA,A,3,08,12,31,,,,,,,,,,1.22,0.92,0.80,3*08
[2024-02-17 22:06:52.769] $GPGSV,2,1,08,21,86,195,34,02,72,290,32,08,36,194,35,10,23,066,36,1*67
[2024-02-17 22:06:52.841] $GPGSV,2,2,08,17,17,320,44,22,15,312,41,14,14,291,50,03,,,34,1*57
[2024-02-17 22:06:52.912] $GAGSV,1,1,04,08,19,040,27,12,12,295,41,31,12,264,39,24,,,27,7*45
[2024-02-17 22:06:52.983] $GNRMC,210645.000,A,5216.696122,N,02048.551988,E,0.00,0.00,170224,,,A,V*02
[2024-02-17 22:06:53.607] $GNGLL,5216.696206,N,02048.551982,E,210646.000,A,A*41
[2024-02-17 22:06:53.660] $GNGSA,A,3,21,02,08,10,17,22,14,,,,,,1.22,0.92,0.80,1*08
[2024-02-17 22:06:53.720] $GNGSA,A,3,08,31,12,,,,,,,,,,1.22,0.92,0.80,3*08
[2024-02-17 22:06:53.771] $GPGSV,3,1,09,21,86,195,34,02,72,290,31,08,36,194,35,10,23,066,36,1*64
[2024-02-17 22:06:53.848] $GPGSV,3,2,09,38,19,228,,17,17,320,44,22,15,312,41,14,14,291,50,1*68
[2024-02-17 22:06:53.920] $GPGSV,3,3,09,03,,,34,1*69
[2024-02-17 22:06:53.950] $GAGSV,1,1,04,08,19,040,27,31,12,264,39,12,12,295,41,24,,,30,7*43
[2024-02-17 22:06:54.020] $GNRMC,210646.000,A,5216.696206,N,02048.551982,E,0.00,0.00,170224,,,A,V*0E
[2024-02-17 22:06:54.610] $GNGLL,5216.696308,N,02048.551928,E,210647.000,A,A*4F
[2024-02-17 22:06:54.667] $GNGSA,A,3,21,02,08,10,17,22,14,,,,,,1.22,0.92,0.80,1*08
[2024-02-17 22:06:54.727] $GNGSA,A,3,08,31,12,,,,,,,,,,1.22,0.92,0.80,3*08
[2024-02-17 22:06:54.780] $GPGSV,3,1,09,21,86,195,34,02,72,290,31,08,36,194,35,10,23,066,36,1*64
[2024-02-17 22:06:54.854] $GPGSV,3,2,09,38,19,228,,17,17,320,44,22,15,312,41,14,14,291,50,1*68
[2024-02-17 22:06:54.931] $GPGSV,3,3,09,03,,,34,1*69
[2024-02-17 22:06:54.956] $GAGSV,1,1,04,08,19,040,27,31,12,264,39,12,12,295,41,24,,,29,7*4B
[2024-02-17 22:06:55.018] $GNRMC,210647.000,A,5216.696308,N,02048.551928,E,0.01,0.00,170224,,,A,V*01
[2024-02-17 22:06:55.609] $GNGLL,5216.696374,N,02048.551874,E,210648.000,A,A*43
[2024-02-17 22:06:55.666] $GNGSA,A,3,21,02,08,10,17,22,14,,,,,,1.22,0.92,0.80,1*08
[2024-02-17 22:06:55.723] $GNGSA,A,3,08,31,12,,,,,,,,,,1.22,0.92,0.80,3*08
[2024-02-17 22:06:55.777] $GPGSV,3,1,09,21,86,195,34,02,72,290,31,08,36,194,35,10,23,066,36,1*64
[2024-02-17 22:06:55.842] $GPGSV,3,2,09,38,19,228,,17,17,320,44,22,15,312,41,14,14,291,50,1*68
[2024-02-17 22:06:55.924] $GPGSV,3,3,09,03,,,34,1*69
[2024-02-17 22:06:55.954] $GAGSV,1,1,04,08,19,040,27,31,12,264,39,12,12,295,41,24,,,34,7*47
[2024-02-17 22:06:56.022] $GNRMC,210648.000,A,5216.696374,N,02048.551874,E,0.01,0.00,170224,,,A,V*0D
[2024-02-17 22:06:56.605] $GNGLL,5216.696404,N,02048.551838,E,210649.000,A,A*4A
[2024-02-17 22:06:56.662] $GNGSA,A,3,21,02,08,03,10,17,22,14,,,,,1.19,0.89,0.80,1*09
[2024-02-17 22:06:56.724] $GNGSA,A,3,08,12,31,,,,,,,,,,1.19,0.89,0.80,3*0A
[2024-02-17 22:06:56.775] $GPGSV,3,1,09,21,86,195,34,02,72,290,31,08,36,194,35,03,31,247,34,1*66
[2024-02-17 22:06:56.850] $GPGSV,3,2,09,10,23,066,36,38,19,228,,17,17,320,44,22,15,312,41,1*62
[2024-02-17 22:06:56.927] $GPGSV,3,3,09,14,14,291,50,1*52
[2024-02-17 22:06:56.956] $GAGSV,1,1,04,08,19,040,27,12,12,295,41,31,12,264,39,24,,,34,7*47
[2024-02-17 22:06:57.028] $GNRMC,210649.000,A,5216.696404,N,02048.551838,E,0.01,0.00,170224,,,A,V*04
[2024-02-17 22:06:57.615] $GNGLL,5216.696452,N,02048.551772,E,210650.000,A,A*40
[2024-02-17 22:06:57.671] $GNGSA,A,3,21,02,08,03,10,17,22,14,,,,,1.19,0.89,0.80,1*09
[2024-02-17 22:06:57.734] $GNGSA,A,3,08,12,31,,,,,,,,,,1.19,0.89,0.80,3*0A
[2024-02-17 22:06:57.785] $GPGSV,3,1,09,21,86,195,34,02,72,290,31,08,36,194,35,03,31,247,34,1*66
[2024-02-17 22:06:57.856] $GPGSV,3,2,09,10,23,066,36,38,19,228,,17,17,320,44,22,15,312,41,1*62
[2024-02-17 22:06:57.930] $GPGSV,3,3,09,14,14,291,50,1*52
[2024-02-17 22:06:57.967] $GAGSV,1,1,04,08,19,040,27,12,12,295,41,31,12,264,39,24,,,35,7*46
[2024-02-17 22:06:58.035] $GNRMC,210650.000,A,5216.696452,N,02048.551772,E,0.01,0.00,170224,,,A,V*0E
[2024-02-17 22:06:58.612] $GNGLL,5216.696536,N,02048.551718,E,210651.000,A,A*4E
[2024-02-17 22:06:58.667] $GNGSA,A,3,21,02,08,03,10,17,22,14,,,,,1.64,0.95,1.34,1*00
[2024-02-17 22:06:58.733] $GNGSA,A,3,08,12,31,,,,,,,,,,1.64,0.95,1.34,3*03
[2024-02-17 22:06:58.781] $GPGSV,3,1,09,21,86,195,33,02,72,290,31,08,36,194,35,03,31,247,34,1*61
[2024-02-17 22:06:58.855] $GPGSV,3,2,09,10,23,066,36,38,19,228,,17,17,320,44,22,15,312,41,1*62
[2024-02-17 22:06:58.928] $GPGSV,3,3,09,14,14,291,50,1*52
[2024-02-17 22:06:58.964] $GAGSV,1,1,04,08,19,040,27,12,12,295,41,31,12,264,39,24,,,36,7*45
[2024-02-17 22:06:59.033] $GNRMC,210651.000,A,5216.696536,N,02048.551718,E,0.01,0.00,170224,,,A,V*00
[2024-02-17 22:06:59.614] $GNGLL,5216.696560,N,02048.551664,E,210652.000,A,A*44
[2024-02-17 22:06:59.669] $GNGSA,A,3,21,02,08,03,10,17,22,14,,,,,1.64,0.95,1.34,1*00
[2024-02-17 22:06:59.731] $GNGSA,A,3,08,12,31,,,,,,,,,,1.64,0.95,1.34,3*03
[2024-02-17 22:06:59.782] $GPGSV,3,1,09,21,86,195,33,02,72,290,31,08,36,194,35,03,31,247,34,1*61
[2024-02-17 22:06:59.854] $GPGSV,3,2,09,10,23,066,37,38,19,228,,17,17,320,44,22,15,312,41,1*63
[2024-02-17 22:06:59.925] $GPGSV,3,3,09,14,14,291,50,1*52
[2024-02-17 22:06:59.952] $GAGSV,1,1,04,08,19,040,27,12,12,295,41,31,12,264,39,24,,,36,7*45
[2024-02-17 22:07:00.030] $GNRMC,210652.000,A,5216.696560,N,02048.551664,E,0.01,0.00,170224,,,A,V*0A
[2024-02-17 22:07:00.614] $GNGLL,5216.696626,N,02048.551604,E,210653.000,A,A*42
[2024-02-17 22:07:00.665] $GNGSA,A,3,21,02,08,03,10,17,22,14,,,,,1.64,0.95,1.34,1*00
[2024-02-17 22:07:00.729] $GNGSA,A,3,08,12,31,,,,,,,,,,1.64,0.95,1.34,3*03
[2024-02-17 22:07:00.780] $GPGSV,3,1,09,21,86,195,33,02,72,290,31,08,36,194,34,03,31,247,33,1*67
[2024-02-17 22:07:00.856] $GPGSV,3,2,09,10,23,066,37,38,19,228,,17,17,320,44,22,15,312,41,1*63
[2024-02-17 22:07:00.927] $GPGSV,3,3,09,14,14,291,50,1*52
[2024-02-17 22:07:00.963] $GAGSV,1,1,04,08,19,040,27,12,12,295,41,31,12,264,39,24,,,36,7*45
[2024-02-17 22:07:01.032] $GNRMC,210653.000,A,5216.696626,N,02048.551604,E,0.01,0.00,170224,,,A,V*0C
[2024-02-17 22:07:01.613] $GNGLL,5216.696686,N,02048.551556,E,210654.000,A,A*4B
[2024-02-17 22:07:01.666] $GNGSA,A,3,21,02,08,03,10,17,22,14,,,,,1.64,0.95,1.34,1*00
[2024-02-17 22:07:01.729] $GNGSA,A,3,08,12,31,,,,,,,,,,1.64,0.95,1.34,3*03
[2024-02-17 22:07:01.783] $GPGSV,2,1,08,21,86,195,33,02,72,290,31,08,36,194,34,03,31,247,33,1*67
[2024-02-17 22:07:01.854] $GPGSV,2,2,08,10,23,066,38,17,17,320,44,22,15,312,41,14,14,291,50,1*68
[2024-02-17 22:07:01.929] $GAGSV,1,1,04,08,19,040,27,12,12,295,41,31,12,264,39,24,,,36,7*45
[2024-02-17 22:07:01.997] $GNRMC,210654.000,A,5216.696686,N,02048.551556,E,0.00,0.00,170224,,,A,V*04
[2024-02-17 22:07:02.595] $GNGLL,5216.696698,N,02048.551514,E,210655.000,A,A*43
[2024-02-17 22:07:02.663] $GNGSA,A,3,21,02,08,03,10,17,22,14,,,,,1.64,0.95,1.34,1*00
[2024-02-17 22:07:02.726] $GNGSA,A,3,08,12,31,,,,,,,,,,1.64,0.95,1.34,3*03
[2024-02-17 22:07:02.775] $GPGSV,2,1,08,21,86,195,33,02,72,290,31,08,36,194,34,03,31,247,33,1*67
[2024-02-17 22:07:02.847] $GPGSV,2,2,08,10,23,066,38,17,17,320,44,22,15,312,41,14,14,291,50,1*68
[2024-02-17 22:07:02.925] $GAGSV,1,1,04,08,19,040,27,12,12,295,41,31,12,264,39,24,,,36,7*45
[2024-02-17 22:07:02.996] $GNRMC,210655.000,A,5216.696698,N,02048.551514,E,0.02,0.00,170224,,,A,V*0E
[2024-02-17 22:07:03.609] $GNGLL,5216.696704,N,02048.551442,E,210656.000,A,A*46
[2024-02-17 22:07:03.663] $GNGSA,A,3,21,02,08,03,10,17,22,14,,,,,1.65,0.96,1.34,1*02
[2024-02-17 22:07:03.725] $GNGSA,A,3,08,12,31,,,,,,,,,,1.65,0.96,1.34,3*01
[2024-02-17 22:07:03.777] $GPGSV,2,1,08,21,86,195,33,02,72,290,31,08,36,194,34,03,31,247,33,1*67
[2024-02-17 22:07:03.852] $GPGSV,2,2,08,10,23,066,38,17,17,320,44,22,15,312,41,14,14,291,50,1*68
[2024-02-17 22:07:03.928] $GAGSV,1,1,04,08,18,040,27,12,12,295,41,31,12,264,39,24,,,37,7*45
[2024-02-17 22:07:03.997] $GNRMC,210656.000,A,5216.696704,N,02048.551442,E,0.00,0.00,170224,,,A,V*09
[2024-02-17 22:07:04.606] $GNGLL,5216.696710,N,02048.551364,E,210657.000,A,A*41
[2024-02-17 22:07:04.660] $GNGSA,A,3,21,02,08,03,10,17,22,14,,,,,1.64,0.95,1.34,1*00
[2024-02-17 22:07:04.724] $GNGSA,A,3,08,12,31,,,,,,,,,,1.64,0.95,1.34,3*03
[2024-02-17 22:07:04.775] $GPGSV,3,1,09,21,86,195,33,02,72,290,31,08,36,194,34,03,31,247,33,1*67
[2024-02-17 22:07:04.849] $GPGSV,3,2,09,10,23,066,38,17,17,320,44,22,15,312,41,14,14,291,49,1*60
[2024-02-17 22:07:04.926] $GPGSV,3,3,09,41,07,112,,1*5D
[2024-02-17 22:07:04.956] $GAGSV,1,1,04,08,18,040,27,12,12,295,41,31,12,264,39,24,,,37,7*45
[2024-02-17 22:07:05.027] $GNRMC,210657.000,A,5216.696710,N,02048.551364,E,0.01,0.00,170224,,,A,V*0F
[2024-02-17 22:07:05.601] $GNGLL,5216.696710,N,02048.551304,E,210658.000,A,A*48
[2024-02-17 22:07:05.658] $GNGSA,A,3,21,02,08,03,10,17,22,14,,,,,1.64,0.95,1.34,1*00
[2024-02-17 22:07:05.719] $GNGSA,A,3,08,12,31,,,,,,,,,,1.64,0.95,1.34,3*03
[2024-02-17 22:07:05.774] $GPGSV,3,1,09,21,86,195,33,02,72,290,31,08,36,194,34,03,31,247,33,1*67
[2024-02-17 22:07:05.847] $GPGSV,3,2,09,10,23,066,38,17,17,320,44,22,15,312,41,14,14,291,49,1*60
[2024-02-17 22:07:05.922] $GPGSV,3,3,09,41,07,112,,1*5D
[2024-02-17 22:07:05.953] $GAGSV,1,1,04,08,18,040,27,12,12,295,41,31,12,264,39,24,,,37,7*45
[2024-02-17 22:07:06.025] $GNRMC,210658.000,A,5216.696710,N,02048.551304,E,0.00,0.00,170224,,,A,V*07
[2024-02-17 22:07:06.604] $GNGLL,5216.696692,N,02048.551250,E,210659.000,A,A*42
[2024-02-17 22:07:06.656] $GNGSA,A,3,21,02,08,03,10,17,22,14,,,,,1.64,0.95,1.34,1*00
[2024-02-17 22:07:06.711] $GNGSA,A,3,08,12,31,,,,,,,,,,1.64,0.95,1.34,3*03
[2024-02-17 22:07:06.772] $GPGSV,3,1,09,21,86,195,33,02,72,290,31,08,36,194,34,03,31,247,33,1*67
[2024-02-17 22:07:06.843] $GPGSV,3,2,09,10,23,066,38,17,17,320,44,22,15,312,41,14,14,291,49,1*60
[2024-02-17 22:07:06.918] $GPGSV,3,3,09,41,07,112,,1*5D
[2024-02-17 22:07:06.955] $GAGSV,1,1,04,08,18,040,27,12,12,295,41,31,12,264,39,24,,,37,7*45
[2024-02-17 22:07:07.013] $GNRMC,210659.000,A,5216.696692,N,02048.551250,E,0.00,0.00,170224,,,A,V*0D
[2024-02-17 22:07:07.604] $GNGLL,5216.696656,N,02048.551190,E,210700.000,A,A*48
[2024-02-17 22:07:07.660] $GNGSA,A,3,21,02,08,03,10,17,22,14,,,,,1.64,0.95,1.34,1*00
[2024-02-17 22:07:07.725] $GNGSA,A,3,08,12,31,,,,,,,,,,1.64,0.95,1.34,3*03
[2024-02-17 22:07:07.773] $GPGSV,3,1,09,21,86,195,33,02,72,290,31,08,36,194,34,03,31,247,33,1*67
[2024-02-17 22:07:07.849] $GPGSV,3,2,09,10,23,066,38,17,17,320,44,22,15,312,41,14,14,291,49,1*60
[2024-02-17 22:07:07.925] $GPGSV,3,3,09,41,07,112,,1*5D
[2024-02-17 22:07:07.956] $GAGSV,1,1,04,08,18,040,27,12,12,295,42,31,12,264,39,24,,,37,7*46
[2024-02-17 22:07:08.024] $GNRMC,210700.000,A,5216.696656,N,02048.551190,E,0.00,0.00,170224,,,A,V*07
[2024-02-17 22:07:08.609] $GNGLL,5216.696650,N,02048.551100,E,210701.000,A,A*46
[2024-02-17 22:07:08.663] $GNGSA,A,3,21,02,08,03,10,17,22,14,,,,,1.64,0.95,1.34,1*00
[2024-02-17 22:07:08.730] $GNGSA,A,3,08,12,31,,,,,,,,,,1.64,0.95,1.34,3*03
[2024-02-17 22:07:08.778] $GPGSV,3,1,09,21,86,195,33,02,72,290,32,08,36,194,34,03,31,247,33,1*64
[2024-02-17 22:07:08.854] $GPGSV,3,2,09,10,23,066,38,17,17,320,44,22,15,312,41,14,14,291,49,1*60
[2024-02-17 22:07:08.928] $GPGSV,3,3,09,41,07,112,,1*5D
[2024-02-17 22:07:08.958] $GAGSV,1,1,04,08,18,040,26,12,12,295,42,31,12,264,39,24,,,37,7*47
[2024-02-17 22:07:09.022] $GNRMC,210701.000,A,5216.696650,N,02048.551100,E,0.01,0.00,170224,,,A,V*08
[2024-02-17 22:07:09.608] $GNGLL,5216.696656,N,02048.551028,E,210702.000,A,A*48
[2024-02-17 22:07:09.660] $GNGSA,A,3,21,02,08,03,10,17,22,14,,,,,1.64,0.95,1.34,1*00
[2024-02-17 22:07:09.720] $GNGSA,A,3,08,12,31,,,,,,,,,,1.64,0.95,1.34,3*03
[2024-02-17 22:07:09.773] $GPGSV,3,1,09,21,86,195,33,02,72,290,32,08,36,194,34,03,31,247,33,1*64
[2024-02-17 22:07:09.847] $GPGSV,3,2,09,10,23,066,38,17,17,320,44,22,15,312,41,14,14,291,49,1*60
[2024-02-17 22:07:09.918] $GPGSV,3,3,09,41,07,112,,1*5D
[2024-02-17 22:07:09.955] $GAGSV,1,1,04,08,18,040,26,12,12,295,42,31,12,264,39,24,,,37,7*47
[2024-02-17 22:07:10.021] $GNRMC,210702.000,A,5216.696656,N,02048.551028,E,0.01,0.00,170224,,,A,V*06
[2024-02-17 22:07:10.606] $GNGLL,5216.696644,N,02048.550992,E,210703.000,A,A*43
[2024-02-17 22:07:10.660] $GNGSA,A,3,21,02,08,03,10,17,22,14,,,,,1.64,0.95,1.34,1*00
[2024-02-17 22:07:10.725] $GNGSA,A,3,08,12,31,,,,,,,,,,1.64,0.95,1.34,3*03
[2024-02-17 22:07:10.774] $GPGSV,2,1,08,21,86,195,33,02,72,290,33,08,36,194,34,03,31,247,33,1*65
[2024-02-17 22:07:10.848] $GPGSV,2,2,08,10,23,066,38,17,17,320,44,22,15,312,41,14,14,291,49,1*60
[2024-02-17 22:07:10.925] $GAGSV,1,1,04,08,18,040,26,12,12,295,42,31,12,264,39,24,,,37,7*47
[2024-02-17 22:07:10.994] $GNRMC,210703.000,A,5216.696644,N,02048.550992,E,0.00,0.00,170224,,,A,V*0C
[2024-02-17 22:07:11.606] $GNGLL,5216.696626,N,02048.550944,E,210704.000,A,A*4B
[2024-02-17 22:07:11.663] $GNGSA,A,3,21,02,08,03,10,17,22,14,,,,,1.64,0.95,1.34,1*00
[2024-02-17 22:07:11.726] $GNGSA,A,3,08,12,31,,,,,,,,,,1.64,0.95,1.34,3*03
[2024-02-17 22:07:11.777] $GPGSV,2,1,08,21,86,195,33,02,72,290,33,08,36,194,34,03,31,247,33,1*65
[2024-02-17 22:07:11.853] $GPGSV,2,2,08,10,23,066,38,17,17,320,44,22,15,312,41,14,14,291,49,1*60
[2024-02-17 22:07:11.916] $GAGSV,1,1,04,08,18,040,26,12,12,295,42,31,12,264,39,24,,,37,7*47
[2024-02-17 22:07:11.998] $GNRMC,210704.000,A,5216.696626,N,02048.550944,E,0.00,0.00,170224,,,A,V*04
[2024-02-17 22:07:12.604] $GNGLL,5216.696614,N,02048.550908,E,210705.000,A,A*43
[2024-02-17 22:07:12.657] $GNGSA,A,3,21,02,08,03,10,17,22,14,,,,,1.64,0.95,1.34,1*00
[2024-02-17 22:07:12.719] $GNGSA,A,3,08,12,31,,,,,,,,,,1.64,0.95,1.34,3*03
[2024-02-17 22:07:12.772] $GPGSV,2,1,08,21,86,195,33,02,72,290,33,08,36,194,34,03,31,247,33,1*65
[2024-02-17 22:07:12.847] $GPGSV,2,2,08,10,23,066,38,17,17,320,44,22,15,312,41,14,14,291,49,1*60
[2024-02-17 22:07:12.923] $GAGSV,1,1,04,08,18,040,26,12,12,295,42,31,12,264,39,24,,,37,7*47
[2024-02-17 22:07:12.993] $GNRMC,210705.000,A,5216.696614,N,02048.550908,E,0.01,0.00,170224,,,A,V*0D
[2024-02-17 22:07:13.592] $GNGLL,5216.696626,N,02048.550866,E,210706.000,A,A*48
[2024-02-17 22:07:13.655] $GNGSA,A,3,21,02,08,03,10,17,22,14,,,,,1.64,0.95,1.34,1*00
[2024-02-17 22:07:13.719] $GNGSA,A,3,08,12,31,,,,,,,,,,1.64,0.95,1.34,3*03
[2024-02-17 22:07:13.774] $GPGSV,3,1,09,21,86,195,33,02,72,290,33,08,36,194,34,03,31,247,33,1*65
[2024-02-17 22:07:13.845] $GPGSV,3,2,09,10,23,066,38,17,17,320,44,22,15,312,41,14,14,291,49,1*60
[2024-02-17 22:07:13.924] $GPGSV,3,3,09,45,01,103,,1*5F
[2024-02-17 22:07:13.955] $GAGSV,1,1,04,08,18,040,26,12,12,295,42,31,12,264,39,24,,,37,7*47
[2024-02-17 22:07:14.026] $GNRMC,210706.000,A,5216.696626,N,02048.550866,E,0.01,0.00,170224,,,A,V*06
[2024-02-17 22:07:14.603] $GNGLL,5216.696620,N,02048.550848,E,210707.000,A,A*43
[2024-02-17 22:07:14.652] $GNGSA,A,3,21,02,08,03,10,17,22,14,,,,,1.64,0.95,1.34,1*00
[2024-02-17 22:07:14.725] $GNGSA,A,3,08,12,31,,,,,,,,,,1.64,0.95,1.34,3*03
[2024-02-17 22:07:14.771] $GPGSV,3,1,09,21,86,195,33,02,72,290,33,08,36,194,33,03,31,247,34,1*65
[2024-02-17 22:07:14.845] $GPGSV,3,2,09,10,23,066,38,17,17,320,44,22,15,312,41,14,14,291,49,1*60
[2024-02-17 22:07:14.922] $GPGSV,3,3,09,45,01,103,,1*5F
[2024-02-17 22:07:14.956] $GAGSV,1,1,04,08,18,040,25,12,12,295,42,31,12,264,39,24,,,37,7*44
[2024-02-17 22:07:15.023] $GNRMC,210707.000,A,5216.696620,N,02048.550848,E,0.01,0.00,170224,,,A,V*0D
[2024-02-17 22:07:15.606] $GNGLL,5216.696620,N,02048.550830,E,210708.000,A,A*43
[2024-02-17 22:07:15.649] $GNGSA,A,3,21,02,08,03,10,17,22,14,,,,,1.64,0.95,1.34,1*00
[2024-02-17 22:07:15.726] $GNGSA,A,3,08,12,31,,,,,,,,,,1.64,0.95,1.34,3*03
[2024-02-17 22:07:15.768] $GPGSV,2,1,08,21,86,195,33,02,72,290,33,08,36,194,32,03,31,247,34,1*64
[2024-02-17 22:07:15.841] $GPGSV,2,2,08,10,23,066,38,17,17,320,44,22,15,312,41,14,14,291,49,1*60
[2024-02-17 22:07:15.923] $GAGSV,1,1,04,08,18,040,25,12,12,295,42,31,12,264,39,24,,,37,7*44
[2024-02-17 22:07:15.991] $GNRMC,210708.000,A,5216.696620,N,02048.550830,E,0.00,0.00,170224,,,A,V*0C
[2024-02-17 22:07:16.603] $GNGLL,5216.696620,N,02048.550818,E,210709.000,A,A*48
[2024-02-17 22:07:16.664] $GNGSA,A,3,21,02,08,03,10,17,22,14,,,,,1.64,0.95,1.34,1*00
[2024-02-17 22:07:16.726] $GNGSA,A,3,08,12,31,,,,,,,,,,1.64,0.95,1.34,3*03
